{
   "type": "FeatureCollection",
   "features": [
  {
    "type": "Feature",
    "geometry": {
       "type": "Point",
       "coordinates":  [ -86.815,33.553056 ]
    },
    "properties": {
    "Units of Measure":"Parts per billion",
    "Mean NO2 in 2022":20.867097,
    "Local Site Name":"North Birmingham",
    "Address":"NO. B'HAM,SOU R.R., 3009 28TH ST. NO.",
    "State Name":"Alabama",
    "County Name":"Jefferson",
    "City Name":"Birmingham",
    "CBSA Name":"Birmingham-Hoover, AL"
    }
  },
  {
    "type": "Feature",
    "geometry": {
       "type": "Point",
       "coordinates":  [ -86.844112,33.521427 ]
    },
    "properties": {
    "Units of Measure":"Parts per billion",
    "Mean NO2 in 2022":19.878977,
    "Local Site Name":"Arkadelphia/Near Road",
    "Address":"1110 5th Street West Birmingham, AL 35204",
    "State Name":"Alabama",
    "County Name":"Jefferson",
    "City Name":"Birmingham",
    "CBSA Name":"Birmingham-Hoover, AL"
    }
  },
  {
    "type": "Feature",
    "geometry": {
       "type": "Point",
       "coordinates":  [ -112.14256,33.48378 ]
    },
    "properties": {
    "Units of Measure":"Parts per billion",
    "Mean NO2 in 2022":30.706161,
    "Local Site Name":"WEST PHOENIX",
    "Address":"3847 W EARLL DR-WEST PHOENIX STATION",
    "State Name":"Arizona",
    "County Name":"Maricopa",
    "City Name":"Phoenix",
    "CBSA Name":"Phoenix-Mesa-Scottsdale, AZ"
    }
  },
  {
    "type": "Feature",
    "geometry": {
       "type": "Point",
       "coordinates":  [ -112.04659,33.45797 ]
    },
    "properties": {
    "Units of Measure":"Parts per billion",
    "Mean NO2 in 2022":33.261084,
    "Local Site Name":"CENTRAL PHOENIX",
    "Address":"1645 E ROOSEVELT ST-CENTRAL PHOENIX STN",
    "State Name":"Arizona",
    "County Name":"Maricopa",
    "City Name":"Phoenix",
    "CBSA Name":"Phoenix-Mesa-Scottsdale, AZ"
    }
  },
  {
    "type": "Feature",
    "geometry": {
       "type": "Point",
       "coordinates":  [ -112.62068,33.36985 ]
    },
    "properties": {
    "Units of Measure":"Parts per billion",
    "Mean NO2 in 2022":18.311321,
    "Local Site Name":"BUCKEYE",
    "Address":"26453 W. MC85",
    "State Name":"Arizona",
    "County Name":"Maricopa",
    "City Name":"Buckeye",
    "CBSA Name":"Phoenix-Mesa-Scottsdale, AZ"
    }
  },
  {
    "type": "Feature",
    "geometry": {
       "type": "Point",
       "coordinates":  [ -112.12796,33.46173 ]
    },
    "properties": {
    "Units of Measure":"Parts per billion",
    "Mean NO2 in 2022":39.861905,
    "Local Site Name":"Thirty-Third",
    "Address":"3248 W. Moreland",
    "State Name":"Arizona",
    "County Name":"Maricopa",
    "City Name":"Phoenix",
    "CBSA Name":"Phoenix-Mesa-Scottsdale, AZ"
    }
  },
  {
    "type": "Feature",
    "geometry": {
       "type": "Point",
       "coordinates":  [ -112.00264,33.41046 ]
    },
    "properties": {
    "Units of Measure":"Parts per billion",
    "Mean NO2 in 2022":31.931707,
    "Local Site Name":"Eastwood",
    "Address":"4135 S 36th Street, Phoenix, AZ",
    "State Name":"Arizona",
    "County Name":"Maricopa",
    "City Name":"Phoenix",
    "CBSA Name":"Phoenix-Mesa-Scottsdale, AZ"
    }
  },
  {
    "type": "Feature",
    "geometry": {
       "type": "Point",
       "coordinates":  [ -112.095767,33.503833 ]
    },
    "properties": {
    "Units of Measure":"Parts per billion",
    "Mean NO2 in 2022":27.317582,
    "Local Site Name":"JLG SUPERSITE",
    "Address":"4530 N 17TH AVENUE",
    "State Name":"Arizona",
    "County Name":"Maricopa",
    "City Name":"Phoenix",
    "CBSA Name":"Phoenix-Mesa-Scottsdale, AZ"
    }
  },
  {
    "type": "Feature",
    "geometry": {
       "type": "Point",
       "coordinates":  [ -110.878067,32.204411 ]
    },
    "properties": {
    "Units of Measure":"Parts per billion",
    "Mean NO2 in 2022":21.388398,
    "Local Site Name":"22ND & CRAYCROFT",
    "Address":"1237 S. BEVERLY , TUCSON",
    "State Name":"Arizona",
    "County Name":"Pima",
    "City Name":"Tucson",
    "CBSA Name":"Tucson, AZ"
    }
  },
  {
    "type": "Feature",
    "geometry": {
       "type": "Point",
       "coordinates":  [ -110.9823,32.29515 ]
    },
    "properties": {
    "Units of Measure":"Parts per billion",
    "Mean NO2 in 2022":17.833735,
    "Local Site Name":"CHILDREN'S PARK NCore",
    "Address":"400 W RIVER ROAD",
    "State Name":"Arizona",
    "County Name":"Pima",
    "City Name":"Tucson",
    "CBSA Name":"Tucson, AZ"
    }
  },
  {
    "type": "Feature",
    "geometry": {
       "type": "Point",
       "coordinates":  [ -90.193141,35.197288 ]
    },
    "properties": {
    "Units of Measure":"Parts per billion",
    "Mean NO2 in 2022":15.23388,
    "Local Site Name":"MARION",
    "Address":"LH POLK AND COLONIAL DRIVE",
    "State Name":"Arkansas",
    "County Name":"Crittenden",
    "City Name":"Marion",
    "CBSA Name":"Memphis, TN-MS-AR"
    }
  },
  {
    "type": "Feature",
    "geometry": {
       "type": "Point",
       "coordinates":  [ -92.281296,34.756189 ]
    },
    "properties": {
    "Units of Measure":"Parts per billion",
    "Mean NO2 in 2022":16.396703,
    "Local Site Name":"PARR",
    "Address":"PIKE AVE AT RIVER ROAD",
    "State Name":"Arkansas",
    "County Name":"Pulaski",
    "City Name":"North Little Rock",
    "CBSA Name":"Little Rock-North Little Rock-Conway, AR"
    }
  },
  {
    "type": "Feature",
    "geometry": {
       "type": "Point",
       "coordinates":  [ -121.784217,37.687526 ]
    },
    "properties": {
    "Units of Measure":"Parts per billion",
    "Mean NO2 in 2022":15.788496,
    "Local Site Name":"Livermore",
    "Address":"793 Rincon Ave.",
    "State Name":"California",
    "County Name":"Alameda",
    "City Name":"Livermore",
    "CBSA Name":"San Francisco-Oakland-Hayward, CA"
    }
  },
  {
    "type": "Feature",
    "geometry": {
       "type": "Point",
       "coordinates":  [ -122.169935,37.743065 ]
    },
    "properties": {
    "Units of Measure":"Parts per billion",
    "Mean NO2 in 2022":16.069547,
    "Local Site Name":"Oakland",
    "Address":"9925 International Blvd",
    "State Name":"California",
    "County Name":"Alameda",
    "City Name":"Oakland",
    "CBSA Name":"San Francisco-Oakland-Hayward, CA"
    }
  },
  {
    "type": "Feature",
    "geometry": {
       "type": "Point",
       "coordinates":  [ -122.282347,37.814781 ]
    },
    "properties": {
    "Units of Measure":"Parts per billion",
    "Mean NO2 in 2022":19.187603,
    "Local Site Name":"Oakland West",
    "Address":"1100 21st Street",
    "State Name":"California",
    "County Name":"Alameda",
    "City Name":"Oakland",
    "CBSA Name":"San Francisco-Oakland-Hayward, CA"
    }
  },
  {
    "type": "Feature",
    "geometry": {
       "type": "Point",
       "coordinates":  [ -122.263376,37.793624 ]
    },
    "properties": {
    "Units of Measure":"Parts per billion",
    "Mean NO2 in 2022":21.887137,
    "Local Site Name":"Laney College",
    "Address":"Laney College Eighth St. parking lot Aisle J",
    "State Name":"California",
    "County Name":"Alameda",
    "City Name":"Oakland",
    "CBSA Name":"San Francisco-Oakland-Hayward, CA"
    }
  },
  {
    "type": "Feature",
    "geometry": {
       "type": "Point",
       "coordinates":  [ -121.903019,37.701222 ]
    },
    "properties": {
    "Units of Measure":"Parts per billion",
    "Mean NO2 in 2022":19.444444,
    "Local Site Name":"Pleasanton - Owens Ct",
    "Address":"Owens Ct.",
    "State Name":"California",
    "County Name":"Alameda",
    "City Name":"Pleasanton",
    "CBSA Name":"San Francisco-Oakland-Hayward, CA"
    }
  },
  {
    "type": "Feature",
    "geometry": {
       "type": "Point",
       "coordinates":  [ -121.84047,39.76168 ]
    },
    "properties": {
    "Units of Measure":"Parts per billion",
    "Mean NO2 in 2022":10.927907,
    "Local Site Name":"Chico-East Avenue",
    "Address":"984 East Avenue, Chico",
    "State Name":"California",
    "County Name":"Butte",
    "City Name":"Chico",
    "CBSA Name":"Chico, CA"
    }
  },
  {
    "type": "Feature",
    "geometry": {
       "type": "Point",
       "coordinates":  [ -122.026154,37.936013 ]
    },
    "properties": {
    "Units of Measure":"Parts per billion",
    "Mean NO2 in 2022":8.812658,
    "Local Site Name":"Concord",
    "Address":"2956-A TREAT BOULEVARD",
    "State Name":"California",
    "County Name":"Contra Costa",
    "City Name":"Concord",
    "CBSA Name":"San Francisco-Oakland-Hayward, CA"
    }
  },
  {
    "type": "Feature",
    "geometry": {
       "type": "Point",
       "coordinates":  [ -121.641918,38.006311 ]
    },
    "properties": {
    "Units of Measure":"Parts per billion",
    "Mean NO2 in 2022":7.796053,
    "Local Site Name":"Bethel Island",
    "Address":"5551 BETHEL ISLAND RD",
    "State Name":"California",
    "County Name":"Contra Costa",
    "City Name":"Bethel Island",
    "CBSA Name":"San Francisco-Oakland-Hayward, CA"
    }
  },
  {
    "type": "Feature",
    "geometry": {
       "type": "Point",
       "coordinates":  [ -122.356811,37.9604 ]
    },
    "properties": {
    "Units of Measure":"Parts per billion",
    "Mean NO2 in 2022":13.69751,
    "Local Site Name":"San Pablo",
    "Address":"1865 D RUMRILL BLVD, San Pablo",
    "State Name":"California",
    "County Name":"Contra Costa",
    "City Name":"San Pablo",
    "CBSA Name":"San Francisco-Oakland-Hayward, CA"
    }
  },
  {
    "type": "Feature",
    "geometry": {
       "type": "Point",
       "coordinates":  [ -121.934188,37.743649 ]
    },
    "properties": {
    "Units of Measure":"Parts per billion",
    "Mean NO2 in 2022":14.561842,
    "Local Site Name":"San Ramon",
    "Address":"9885 Alcosta BLVD",
    "State Name":"California",
    "County Name":"Contra Costa",
    "City Name":"San Ramon",
    "CBSA Name":"San Francisco-Oakland-Hayward, CA"
    }
  },
  {
    "type": "Feature",
    "geometry": {
       "type": "Point",
       "coordinates":  [ -119.741332,36.705474 ]
    },
    "properties": {
    "Units of Measure":"Parts per billion",
    "Mean NO2 in 2022":25.940909,
    "Local Site Name":"Fresno-Drummond",
    "Address":"4706 E. DRUMMOND ST., FRESNO",
    "State Name":"California",
    "County Name":"Fresno",
    "City Name":"",
    "CBSA Name":"Fresno, CA"
    }
  },
  {
    "type": "Feature",
    "geometry": {
       "type": "Point",
       "coordinates":  [ -119.77321,36.78538 ]
    },
    "properties": {
    "Units of Measure":"Parts per billion",
    "Mean NO2 in 2022":21.584337,
    "Local Site Name":"Fresno - Garland",
    "Address":"3727 N FIRST ST, FRESNO",
    "State Name":"California",
    "County Name":"Fresno",
    "City Name":"Fresno",
    "CBSA Name":"Fresno, CA"
    }
  },
  {
    "type": "Feature",
    "geometry": {
       "type": "Point",
       "coordinates":  [ -119.874739,36.841592 ]
    },
    "properties": {
    "Units of Measure":"Parts per billion",
    "Mean NO2 in 2022":17.195455,
    "Local Site Name":"Fresno-Sky Park",
    "Address":"SIERRA SKYPARK#2-BLYTHE & CHNNLT, FRESNO",
    "State Name":"California",
    "County Name":"Fresno",
    "City Name":"Fresno",
    "CBSA Name":"Fresno, CA"
    }
  },
  {
    "type": "Feature",
    "geometry": {
       "type": "Point",
       "coordinates":  [ -119.7775,36.710833 ]
    },
    "properties": {
    "Units of Measure":"Parts per billion",
    "Mean NO2 in 2022":32.587209,
    "Local Site Name":"Fresno-Foundry",
    "Address":"2482 Foundry Park Ave",
    "State Name":"California",
    "County Name":"Fresno",
    "City Name":"Fresno",
    "CBSA Name":"Fresno, CA"
    }
  },
  {
    "type": "Feature",
    "geometry": {
       "type": "Point",
       "coordinates":  [ -119.503659,36.597442 ]
    },
    "properties": {
    "Units of Measure":"Parts per billion",
    "Mean NO2 in 2022":11.821229,
    "Local Site Name":"Parlier",
    "Address":"9240 S. RIVERBEND, PARLIER 93648",
    "State Name":"California",
    "County Name":"Fresno",
    "City Name":"Parlier",
    "CBSA Name":"Fresno, CA"
    }
  },
  {
    "type": "Feature",
    "geometry": {
       "type": "Point",
       "coordinates":  [ -119.716433,36.819449 ]
    },
    "properties": {
    "Units of Measure":"Parts per billion",
    "Mean NO2 in 2022":21.441071,
    "Local Site Name":"Clovis-Villa",
    "Address":"908 N VILLA AVE, CLOVIS",
    "State Name":"California",
    "County Name":"Fresno",
    "City Name":"Clovis",
    "CBSA Name":"Fresno, CA"
    }
  },
  {
    "type": "Feature",
    "geometry": {
       "type": "Point",
       "coordinates":  [ -124.17949,40.77678 ]
    },
    "properties": {
    "Units of Measure":"Parts per billion",
    "Mean NO2 in 2022":4.3852,
    "Local Site Name":"Jacobs",
    "Address":"717 SOUTH AVENUE",
    "State Name":"California",
    "County Name":"Humboldt",
    "City Name":"Eureka",
    "CBSA Name":"Eureka-Arcata-Fortuna, CA"
    }
  },
  {
    "type": "Feature",
    "geometry": {
       "type": "Point",
       "coordinates":  [ -115.48307,32.67618 ]
    },
    "properties": {
    "Units of Measure":"Parts per billion",
    "Mean NO2 in 2022":31.360227,
    "Local Site Name":"Calexico-Ethel Street",
    "Address":"1029 ETHEL ST, CALEXICO HIGH SCHOOL",
    "State Name":"California",
    "County Name":"Imperial",
    "City Name":"Calexico",
    "CBSA Name":"El Centro, CA"
    }
  },
  {
    "type": "Feature",
    "geometry": {
       "type": "Point",
       "coordinates":  [ -115.56306,32.79222 ]
    },
    "properties": {
    "Units of Measure":"Parts per billion",
    "Mean NO2 in 2022":16.151316,
    "Local Site Name":"El Centro-9th Street",
    "Address":"150 9TH ST., EL CENTRO",
    "State Name":"California",
    "County Name":"Imperial",
    "City Name":"El Centro",
    "CBSA Name":"El Centro, CA"
    }
  },
  {
    "type": "Feature",
    "geometry": {
       "type": "Point",
       "coordinates":  [ -118.851825,35.345607 ]
    },
    "properties": {
    "Units of Measure":"Parts per billion",
    "Mean NO2 in 2022":14.610924,
    "Local Site Name":"Edison",
    "Address":"JOHNSON FARM, EDISON, CA. 93320",
    "State Name":"California",
    "County Name":"Kern",
    "City Name":"",
    "CBSA Name":"Bakersfield, CA"
    }
  },
  {
    "type": "Feature",
    "geometry": {
       "type": "Point",
       "coordinates":  [ -119.062613,35.356615 ]
    },
    "properties": {
    "Units of Measure":"Parts per billion",
    "Mean NO2 in 2022":27.613158,
    "Local Site Name":"Bakersfield-California",
    "Address":"5558 California Ave., Bakersfield CA 93309",
    "State Name":"California",
    "County Name":"Kern",
    "City Name":"Bakersfield",
    "CBSA Name":"Bakersfield, CA"
    }
  },
  {
    "type": "Feature",
    "geometry": {
       "type": "Point",
       "coordinates":  [ -118.999961,35.331612 ]
    },
    "properties": {
    "Units of Measure":"Parts per billion",
    "Mean NO2 in 2022":30.541573,
    "Local Site Name":"Bakersfield-Muni",
    "Address":"2000 South Union Ave. Bakersfield CA  93307",
    "State Name":"California",
    "County Name":"Kern",
    "City Name":"Bakersfield",
    "CBSA Name":"Bakersfield, CA"
    }
  },
  {
    "type": "Feature",
    "geometry": {
       "type": "Point",
       "coordinates":  [ -119.272606,35.503587 ]
    },
    "properties": {
    "Units of Measure":"Parts per billion",
    "Mean NO2 in 2022":19.698333,
    "Local Site Name":"Shafter",
    "Address":"548 WALKER ST., SHAFTER, CA., 93263",
    "State Name":"California",
    "County Name":"Kern",
    "City Name":"Shafter",
    "CBSA Name":"Bakersfield, CA"
    }
  },
  {
    "type": "Feature",
    "geometry": {
       "type": "Point",
       "coordinates":  [ -119.643447,36.31567 ]
    },
    "properties": {
    "Units of Measure":"Parts per billion",
    "Mean NO2 in 2022":18.20678,
    "Local Site Name":"Hanford-Irwin",
    "Address":"807 SOUTH IRWIN ST., HANFORD",
    "State Name":"California",
    "County Name":"Kings",
    "City Name":"Hanford",
    "CBSA Name":"Hanford-Corcoran, CA"
    }
  },
  {
    "type": "Feature",
    "geometry": {
       "type": "Point",
       "coordinates":  [ -117.92391,34.1365 ]
    },
    "properties": {
    "Units of Measure":"Parts per billion",
    "Mean NO2 in 2022":21.801183,
    "Local Site Name":"Azusa",
    "Address":"803 N. LOREN AVE., AZUSA",
    "State Name":"California",
    "County Name":"Los Angeles",
    "City Name":"Azusa",
    "CBSA Name":"Los Angeles-Long Beach-Anaheim, CA"
    }
  },
  {
    "type": "Feature",
    "geometry": {
       "type": "Point",
       "coordinates":  [ -117.85036,34.14435 ]
    },
    "properties": {
    "Units of Measure":"Parts per billion",
    "Mean NO2 in 2022":14.301657,
    "Local Site Name":"Glendora",
    "Address":"840 LAUREL, GLENDORA",
    "State Name":"California",
    "County Name":"Los Angeles",
    "City Name":"Glendora",
    "CBSA Name":"Los Angeles-Long Beach-Anaheim, CA"
    }
  },
  {
    "type": "Feature",
    "geometry": {
       "type": "Point",
       "coordinates":  [ -118.45636,34.05111 ]
    },
    "properties": {
    "Units of Measure":"Parts per billion",
    "Mean NO2 in 2022":24.48674,
    "Local Site Name":"West Los Angeles",
    "Address":"VA HOSPITAL, WEST LOS ANGELES",
    "State Name":"California",
    "County Name":"Los Angeles",
    "City Name":"West Los Angeles",
    "CBSA Name":"Los Angeles-Long Beach-Anaheim, CA"
    }
  },
  {
    "type": "Feature",
    "geometry": {
       "type": "Point",
       "coordinates":  [ -118.22688,34.06659 ]
    },
    "properties": {
    "Units of Measure":"Parts per billion",
    "Mean NO2 in 2022":34.402762,
    "Local Site Name":"Los Angeles-North Main Street",
    "Address":"1630 N MAIN ST, LOS ANGELES",
    "State Name":"California",
    "County Name":"Los Angeles",
    "City Name":"Los Angeles",
    "CBSA Name":"Los Angeles-Long Beach-Anaheim, CA"
    }
  },
  {
    "type": "Feature",
    "geometry": {
       "type": "Point",
       "coordinates":  [ -118.22688,34.06659 ]
    },
    "properties": {
    "Units of Measure":"Parts per billion",
    "Mean NO2 in 2022":30.970166,
    "Local Site Name":"Los Angeles-North Main Street",
    "Address":"1630 N MAIN ST, LOS ANGELES",
    "State Name":"California",
    "County Name":"Los Angeles",
    "City Name":"Los Angeles",
    "CBSA Name":"Los Angeles-Long Beach-Anaheim, CA"
    }
  },
  {
    "type": "Feature",
    "geometry": {
       "type": "Point",
       "coordinates":  [ -118.53276,34.19925 ]
    },
    "properties": {
    "Units of Measure":"Parts per billion",
    "Mean NO2 in 2022":21.255556,
    "Local Site Name":"Reseda",
    "Address":"18330 GAULT ST., RESEDA",
    "State Name":"California",
    "County Name":"Los Angeles",
    "City Name":"Reseda",
    "CBSA Name":"Los Angeles-Long Beach-Anaheim, CA"
    }
  },
  {
    "type": "Feature",
    "geometry": {
       "type": "Point",
       "coordinates":  [ -118.205,33.901389 ]
    },
    "properties": {
    "Units of Measure":"Parts per billion",
    "Mean NO2 in 2022":28.81989,
    "Local Site Name":"Compton",
    "Address":"700 North Bullis Road",
    "State Name":"California",
    "County Name":"Los Angeles",
    "City Name":"Compton",
    "CBSA Name":"Los Angeles-Long Beach-Anaheim, CA"
    }
  },
  {
    "type": "Feature",
    "geometry": {
       "type": "Point",
       "coordinates":  [ -118.0685,34.01029 ]
    },
    "properties": {
    "Units of Measure":"Parts per billion",
    "Mean NO2 in 2022":31.402778,
    "Local Site Name":"Pico Rivera #2",
    "Address":"4144 SAN GABRIEL RIVER PKWY, PICO RIVERA",
    "State Name":"California",
    "County Name":"Los Angeles",
    "City Name":"Pico Rivera",
    "CBSA Name":"Los Angeles-Long Beach-Anaheim, CA"
    }
  },
  {
    "type": "Feature",
    "geometry": {
       "type": "Point",
       "coordinates":  [ -117.7514,34.06703 ]
    },
    "properties": {
    "Units of Measure":"Parts per billion",
    "Mean NO2 in 2022":30.019774,
    "Local Site Name":"Pomona",
    "Address":"924 N. GAREY AVE., POMONA",
    "State Name":"California",
    "County Name":"Los Angeles",
    "City Name":"Pomona",
    "CBSA Name":"Los Angeles-Long Beach-Anaheim, CA"
    }
  },
  {
    "type": "Feature",
    "geometry": {
       "type": "Point",
       "coordinates":  [ -118.1272,34.1326 ]
    },
    "properties": {
    "Units of Measure":"Parts per billion",
    "Mean NO2 in 2022":26.216111,
    "Local Site Name":"Pasadena",
    "Address":"752 S. WILSON AVE., PASADENA",
    "State Name":"California",
    "County Name":"Los Angeles",
    "City Name":"Pasadena",
    "CBSA Name":"Los Angeles-Long Beach-Anaheim, CA"
    }
  },
  {
    "type": "Feature",
    "geometry": {
       "type": "Point",
       "coordinates":  [ -118.200707,33.859662 ]
    },
    "properties": {
    "Units of Measure":"Parts per billion",
    "Mean NO2 in 2022":46.202762,
    "Local Site Name":"Long Beach-Route 710 Near Road",
    "Address":"5895 Long Beach Blvd.",
    "State Name":"California",
    "County Name":"Los Angeles",
    "City Name":"Long Beach",
    "CBSA Name":"Los Angeles-Long Beach-Anaheim, CA"
    }
  },
  {
    "type": "Feature",
    "geometry": {
       "type": "Point",
       "coordinates":  [ -118.171019,33.793713 ]
    },
    "properties": {
    "Units of Measure":"Parts per billion",
    "Mean NO2 in 2022":25.479888,
    "Local Site Name":"Signal Hill (LBSH)",
    "Address":"1710 E. 20th Street",
    "State Name":"California",
    "County Name":"Los Angeles",
    "City Name":"Signal Hill",
    "CBSA Name":"Los Angeles-Long Beach-Anaheim, CA"
    }
  },
  {
    "type": "Feature",
    "geometry": {
       "type": "Point",
       "coordinates":  [ -118.363036,34.181977 ]
    },
    "properties": {
    "Units of Measure":"Parts per billion",
    "Mean NO2 in 2022":25.603352,
    "Local Site Name":"North Hollywood (NOHO)",
    "Address":"10659 W. Delano Street",
    "State Name":"California",
    "County Name":"Los Angeles",
    "City Name":"Los Angeles",
    "CBSA Name":"Los Angeles-Long Beach-Anaheim, CA"
    }
  },
  {
    "type": "Feature",
    "geometry": {
       "type": "Point",
       "coordinates":  [ -118.5284,34.38344 ]
    },
    "properties": {
    "Units of Measure":"Parts per billion",
    "Mean NO2 in 2022":17.990608,
    "Local Site Name":"Santa Clarita",
    "Address":"22224 PLACERITA CANYON RD, SANTA CLARITA",
    "State Name":"California",
    "County Name":"Los Angeles",
    "City Name":"Santa Clarita",
    "CBSA Name":"Los Angeles-Long Beach-Anaheim, CA"
    }
  },
  {
    "type": "Feature",
    "geometry": {
       "type": "Point",
       "coordinates":  [ -118.130511,34.669739 ]
    },
    "properties": {
    "Units of Measure":"Parts per billion",
    "Mean NO2 in 2022":20.288202,
    "Local Site Name":"Lancaster-Division Street",
    "Address":"43301 DIVISION ST., LANCASTER, CA",
    "State Name":"California",
    "County Name":"Los Angeles",
    "City Name":"Lancaster",
    "CBSA Name":"Los Angeles-Long Beach-Anaheim, CA"
    }
  },
  {
    "type": "Feature",
    "geometry": {
       "type": "Point",
       "coordinates":  [ -120.010158,36.867125 ]
    },
    "properties": {
    "Units of Measure":"Parts per billion",
    "Mean NO2 in 2022":17.510169,
    "Local Site Name":"Madera-Pump Yard",
    "Address":"RD. 29 1/2 NO. OF AVE 8 MADERA COUNTY",
    "State Name":"California",
    "County Name":"Madera",
    "City Name":"Madera",
    "CBSA Name":"Madera, CA"
    }
  },
  {
    "type": "Feature",
    "geometry": {
       "type": "Point",
       "coordinates":  [ -122.520004,37.97231 ]
    },
    "properties": {
    "Units of Measure":"Parts per billion",
    "Mean NO2 in 2022":12.783471,
    "Local Site Name":"San Rafael",
    "Address":"534 4TH ST.",
    "State Name":"California",
    "County Name":"Marin",
    "City Name":"San Rafael",
    "CBSA Name":"San Francisco-Oakland-Hayward, CA"
    }
  },
  {
    "type": "Feature",
    "geometry": {
       "type": "Point",
       "coordinates":  [ -120.433671,37.281853 ]
    },
    "properties": {
    "Units of Measure":"Parts per billion",
    "Mean NO2 in 2022":19.432584,
    "Local Site Name":"Merced-Coffee",
    "Address":"385 S. COFFEE AVENUE, MERCED, CA 95340",
    "State Name":"California",
    "County Name":"Merced",
    "City Name":"",
    "CBSA Name":"Merced, CA"
    }
  },
  {
    "type": "Feature",
    "geometry": {
       "type": "Point",
       "coordinates":  [ -121.623271,36.694261 ]
    },
    "properties": {
    "Units of Measure":"Parts per billion",
    "Mean NO2 in 2022":6.965812,
    "Local Site Name":"Salinas 3",
    "Address":"867 E. LAUREL Dr",
    "State Name":"California",
    "County Name":"Monterey",
    "City Name":"Salinas",
    "CBSA Name":"Salinas, CA"
    }
  },
  {
    "type": "Feature",
    "geometry": {
       "type": "Point",
       "coordinates":  [ -117.93845,33.83062 ]
    },
    "properties": {
    "Units of Measure":"Parts per billion",
    "Mean NO2 in 2022":24.291111,
    "Local Site Name":"Anaheim",
    "Address":"1630 W. PAMPAS LANE",
    "State Name":"California",
    "County Name":"Orange",
    "City Name":"Anaheim",
    "CBSA Name":"Los Angeles-Long Beach-Anaheim, CA"
    }
  },
  {
    "type": "Feature",
    "geometry": {
       "type": "Point",
       "coordinates":  [ -117.918759,33.819305 ]
    },
    "properties": {
    "Units of Measure":"Parts per billion",
    "Mean NO2 in 2022":30.994475,
    "Local Site Name":"Anaheim Near-Road",
    "Address":"812 W. Vermont St., Anaheim, CA 92802",
    "State Name":"California",
    "County Name":"Orange",
    "City Name":"Anaheim",
    "CBSA Name":"Los Angeles-Long Beach-Anaheim, CA"
    }
  },
  {
    "type": "Feature",
    "geometry": {
       "type": "Point",
       "coordinates":  [ -117.95264,33.92513 ]
    },
    "properties": {
    "Units of Measure":"Parts per billion",
    "Mean NO2 in 2022":23.065556,
    "Local Site Name":"La Habra",
    "Address":"621 W. LAMBERT, LA HABRA",
    "State Name":"California",
    "County Name":"Orange",
    "City Name":"La Habra",
    "CBSA Name":"Los Angeles-Long Beach-Anaheim, CA"
    }
  },
  {
    "type": "Feature",
    "geometry": {
       "type": "Point",
       "coordinates":  [ -121.26498,38.74643 ]
    },
    "properties": {
    "Units of Measure":"Parts per billion",
    "Mean NO2 in 2022":13.286667,
    "Local Site Name":"Roseville-N Sunrise Ave",
    "Address":" 151 NO SUNRISE BLVD, ROSEVILLE, CA",
    "State Name":"California",
    "County Name":"Placer",
    "City Name":"Roseville",
    "CBSA Name":"Sacramento--Roseville--Arden-Arcade, CA"
    }
  },
  {
    "type": "Feature",
    "geometry": {
       "type": "Point",
       "coordinates":  [ -117.088649,33.447867 ]
    },
    "properties": {
    "Units of Measure":"Parts per billion",
    "Mean NO2 in 2022":11.459322,
    "Local Site Name":"Pechanga",
    "Address":"12705 Pechanga Rd., Temecula, CA 92592",
    "State Name":"California",
    "County Name":"Riverside",
    "City Name":"",
    "CBSA Name":"Riverside-San Bernardino-Ontario, CA"
    }
  },
  {
    "type": "Feature",
    "geometry": {
       "type": "Point",
       "coordinates":  [ -116.85841,33.92086 ]
    },
    "properties": {
    "Units of Measure":"Parts per billion",
    "Mean NO2 in 2022":24.500568,
    "Local Site Name":"Banning Airport",
    "Address":"200 S. HATHAWAY ST., BANNING CA",
    "State Name":"California",
    "County Name":"Riverside",
    "City Name":"Banning",
    "CBSA Name":"Riverside-San Bernardino-Ontario, CA"
    }
  },
  {
    "type": "Feature",
    "geometry": {
       "type": "Point",
       "coordinates":  [ -116.830074,33.944713 ]
    },
    "properties": {
    "Units of Measure":"Parts per billion",
    "Mean NO2 in 2022":7.893532,
    "Local Site Name":"Morongo Air Monitoring Station",
    "Address":"12160 Santiago Rd. Banning, CA 92220",
    "State Name":"California",
    "County Name":"Riverside",
    "City Name":"Banning",
    "CBSA Name":"Riverside-San Bernardino-Ontario, CA"
    }
  },
  {
    "type": "Feature",
    "geometry": {
       "type": "Point",
       "coordinates":  [ -116.54101,33.85275 ]
    },
    "properties": {
    "Units of Measure":"Parts per billion",
    "Mean NO2 in 2022":16.289503,
    "Local Site Name":"Palm Springs",
    "Address":"FS-590 RACQUET CLUB AVE, PALM SPRINGS",
    "State Name":"California",
    "County Name":"Riverside",
    "City Name":"Palm Springs",
    "CBSA Name":"Riverside-San Bernardino-Ontario, CA"
    }
  },
  {
    "type": "Feature",
    "geometry": {
       "type": "Point",
       "coordinates":  [ -117.41601,33.99958 ]
    },
    "properties": {
    "Units of Measure":"Parts per billion",
    "Mean NO2 in 2022":27.647753,
    "Local Site Name":"Rubidoux",
    "Address":"5888 MISSION BLVD., RUBIDOUX",
    "State Name":"California",
    "County Name":"Riverside",
    "City Name":"Rubidoux",
    "CBSA Name":"Riverside-San Bernardino-Ontario, CA"
    }
  },
  {
    "type": "Feature",
    "geometry": {
       "type": "Point",
       "coordinates":  [ -117.41601,33.99958 ]
    },
    "properties": {
    "Units of Measure":"Parts per billion",
    "Mean NO2 in 2022":27.314607,
    "Local Site Name":"Rubidoux",
    "Address":"5888 MISSION BLVD., RUBIDOUX",
    "State Name":"California",
    "County Name":"Riverside",
    "City Name":"Rubidoux",
    "CBSA Name":"Riverside-San Bernardino-Ontario, CA"
    }
  },
  {
    "type": "Feature",
    "geometry": {
       "type": "Point",
       "coordinates":  [ -117.4924,33.99636 ]
    },
    "properties": {
    "Units of Measure":"Parts per billion",
    "Mean NO2 in 2022":22.39337,
    "Local Site Name":"Mira Loma (Van Buren)",
    "Address":"5130 POINSETTIA PLACE",
    "State Name":"California",
    "County Name":"Riverside",
    "City Name":"Mira Loma",
    "CBSA Name":"Riverside-San Bernardino-Ontario, CA"
    }
  },
  {
    "type": "Feature",
    "geometry": {
       "type": "Point",
       "coordinates":  [ -117.33098,33.67649 ]
    },
    "properties": {
    "Units of Measure":"Parts per billion",
    "Mean NO2 in 2022":16.095,
    "Local Site Name":"Lake Elsinore",
    "Address":"506 W FLINT ST, LAKE ELSINORE",
    "State Name":"California",
    "County Name":"Riverside",
    "City Name":"Lake Elsinore",
    "CBSA Name":"Riverside-San Bernardino-Ontario, CA"
    }
  },
  {
    "type": "Feature",
    "geometry": {
       "type": "Point",
       "coordinates":  [ -121.368014,38.613779 ]
    },
    "properties": {
    "Units of Measure":"Parts per billion",
    "Mean NO2 in 2022":21.932203,
    "Local Site Name":"Sacramento-Del Paso Manor",
    "Address":"DEL PASO-2701 AVALON DR, SACRAMENTO",
    "State Name":"California",
    "County Name":"Sacramento",
    "City Name":"Arden-Arcade",
    "CBSA Name":"Sacramento--Roseville--Arden-Arcade, CA"
    }
  },
  {
    "type": "Feature",
    "geometry": {
       "type": "Point",
       "coordinates":  [ -121.49311,38.56844 ]
    },
    "properties": {
    "Units of Measure":"Parts per billion",
    "Mean NO2 in 2022":19.006742,
    "Local Site Name":"Sacramento-1309 T Street",
    "Address":"1309 T ST., SACRAMENTO, CA. 95814",
    "State Name":"California",
    "County Name":"Sacramento",
    "City Name":"Sacramento",
    "CBSA Name":"Sacramento--Roseville--Arden-Arcade, CA"
    }
  },
  {
    "type": "Feature",
    "geometry": {
       "type": "Point",
       "coordinates":  [ -121.420838,38.302591 ]
    },
    "properties": {
    "Units of Measure":"Parts per billion",
    "Mean NO2 in 2022":10.85,
    "Local Site Name":"Elk Grove-Bruceville",
    "Address":" 12490 BRUCEVILLE RD, ELK GROVE, CA",
    "State Name":"California",
    "County Name":"Sacramento",
    "City Name":"",
    "CBSA Name":"Sacramento--Roseville--Arden-Arcade, CA"
    }
  },
  {
    "type": "Feature",
    "geometry": {
       "type": "Point",
       "coordinates":  [ -121.164457,38.683304 ]
    },
    "properties": {
    "Units of Measure":"Parts per billion",
    "Mean NO2 in 2022":9.125,
    "Local Site Name":"Folsom-Natoma St.",
    "Address":"50 NATOMA STREET, FOLSOM",
    "State Name":"California",
    "County Name":"Sacramento",
    "City Name":"Folsom",
    "CBSA Name":"Sacramento--Roseville--Arden-Arcade, CA"
    }
  },
  {
    "type": "Feature",
    "geometry": {
       "type": "Point",
       "coordinates":  [ -121.503795,38.593322 ]
    },
    "properties": {
    "Units of Measure":"Parts per billion",
    "Mean NO2 in 2022":26.545455,
    "Local Site Name":"Sacramento-Bercut Drive",
    "Address":"100 Bercut Drive, Sacramento",
    "State Name":"California",
    "County Name":"Sacramento",
    "City Name":"Sacramento",
    "CBSA Name":"Sacramento--Roseville--Arden-Arcade, CA"
    }
  },
  {
    "type": "Feature",
    "geometry": {
       "type": "Point",
       "coordinates":  [ -117.024804,34.89398 ]
    },
    "properties": {
    "Units of Measure":"Parts per billion",
    "Mean NO2 in 2022":32.81686,
    "Local Site Name":"Barstow",
    "Address":"200 E. BUENA VISTA, BARSTOW",
    "State Name":"California",
    "County Name":"San Bernardino",
    "City Name":"Barstow",
    "CBSA Name":"Riverside-San Bernardino-Ontario, CA"
    }
  },
  {
    "type": "Feature",
    "geometry": {
       "type": "Point",
       "coordinates":  [ -117.52579,34.06812 ]
    },
    "properties": {
    "Units of Measure":"Parts per billion",
    "Mean NO2 in 2022":40.259669,
    "Local Site Name":"Ontario Near Road (Etiwanda)",
    "Address":"NW Corner Interstate 10 & Etiwanda Ave",
    "State Name":"California",
    "County Name":"San Bernardino",
    "City Name":"Ontario",
    "CBSA Name":"Riverside-San Bernardino-Ontario, CA"
    }
  },
  {
    "type": "Feature",
    "geometry": {
       "type": "Point",
       "coordinates":  [ -117.61722,34.030833 ]
    },
    "properties": {
    "Units of Measure":"Parts per billion",
    "Mean NO2 in 2022":43.737569,
    "Local Site Name":"Ontario-Route 60 Near Road",
    "Address":"2330 S. Castle Harbour",
    "State Name":"California",
    "County Name":"San Bernardino",
    "City Name":"Ontario",
    "CBSA Name":"Riverside-San Bernardino-Ontario, CA"
    }
  },
  {
    "type": "Feature",
    "geometry": {
       "type": "Point",
       "coordinates":  [ -117.32554,34.510961 ]
    },
    "properties": {
    "Units of Measure":"Parts per billion",
    "Mean NO2 in 2022":28.350286,
    "Local Site Name":"Victorville-Park Avenue",
    "Address":"14306 PARK AVE., VICTORVILLE, CA",
    "State Name":"California",
    "County Name":"San Bernardino",
    "City Name":"Victorville",
    "CBSA Name":"Riverside-San Bernardino-Ontario, CA"
    }
  },
  {
    "type": "Feature",
    "geometry": {
       "type": "Point",
       "coordinates":  [ -117.62914,34.10374 ]
    },
    "properties": {
    "Units of Measure":"Parts per billion",
    "Mean NO2 in 2022":26.192737,
    "Local Site Name":"Upland",
    "Address":"1350 SAN BERNARDINO RD., UPLAND",
    "State Name":"California",
    "County Name":"San Bernardino",
    "City Name":"Upland",
    "CBSA Name":"Riverside-San Bernardino-Ontario, CA"
    }
  },
  {
    "type": "Feature",
    "geometry": {
       "type": "Point",
       "coordinates":  [ -117.3714,35.77417 ]
    },
    "properties": {
    "Units of Measure":"Parts per billion",
    "Mean NO2 in 2022":12.892571,
    "Local Site Name":"Trona - Athol/Telescope #2",
    "Address":"Corner of Athol and Telescope, Trona",
    "State Name":"California",
    "County Name":"San Bernardino",
    "City Name":"Searles Valley",
    "CBSA Name":"Riverside-San Bernardino-Ontario, CA"
    }
  },
  {
    "type": "Feature",
    "geometry": {
       "type": "Point",
       "coordinates":  [ -117.49201,34.10002 ]
    },
    "properties": {
    "Units of Measure":"Parts per billion",
    "Mean NO2 in 2022":31.249153,
    "Local Site Name":"Fontana",
    "Address":"14360 ARROW BLVD., FONTANA",
    "State Name":"California",
    "County Name":"San Bernardino",
    "City Name":"Fontana",
    "CBSA Name":"Riverside-San Bernardino-Ontario, CA"
    }
  },
  {
    "type": "Feature",
    "geometry": {
       "type": "Point",
       "coordinates":  [ -117.274063,34.106678 ]
    },
    "properties": {
    "Units of Measure":"Parts per billion",
    "Mean NO2 in 2022":28.757222,
    "Local Site Name":"San Bernardino",
    "Address":"24302 4TH ST., SAN BERNARDINO, CA.",
    "State Name":"California",
    "County Name":"San Bernardino",
    "City Name":"San Bernardino",
    "CBSA Name":"Riverside-San Bernardino-Ontario, CA"
    }
  },
  {
    "type": "Feature",
    "geometry": {
       "type": "Point",
       "coordinates":  [ -117.059088,32.631242 ]
    },
    "properties": {
    "Units of Measure":"Parts per billion",
    "Mean NO2 in 2022":24.263265,
    "Local Site Name":"Chula Vista",
    "Address":"84 E. 'J' ST., CHULA VISTA",
    "State Name":"California",
    "County Name":"San Diego",
    "City Name":"Chula Vista",
    "CBSA Name":"San Diego-Carlsbad, CA"
    }
  },
  {
    "type": "Feature",
    "geometry": {
       "type": "Point",
       "coordinates":  [ -116.768293,32.842318 ]
    },
    "properties": {
    "Units of Measure":"Parts per billion",
    "Mean NO2 in 2022":8.095238,
    "Local Site Name":"Alpine",
    "Address":"2300 VICTORIA DR., ALPINE",
    "State Name":"California",
    "County Name":"San Diego",
    "City Name":"Alpine",
    "CBSA Name":"San Diego-Carlsbad, CA"
    }
  },
  {
    "type": "Feature",
    "geometry": {
       "type": "Point",
       "coordinates":  [ -117.396177,33.217055 ]
    },
    "properties": {
    "Units of Measure":"Parts per billion",
    "Mean NO2 in 2022":17.261806,
    "Local Site Name":"Camp Pendleton",
    "Address":"21441-W B STREET",
    "State Name":"California",
    "County Name":"San Diego",
    "City Name":"Camp Pendleton South",
    "CBSA Name":"San Diego-Carlsbad, CA"
    }
  },
  {
    "type": "Feature",
    "geometry": {
       "type": "Point",
       "coordinates":  [ -116.92135,32.57816 ]
    },
    "properties": {
    "Units of Measure":"Parts per billion",
    "Mean NO2 in 2022":23.571622,
    "Local Site Name":"Donovan",
    "Address":"480 ALTA RD, OTAY MESA, CA",
    "State Name":"California",
    "County Name":"San Diego",
    "City Name":"Otay Mesa",
    "CBSA Name":"San Diego-Carlsbad, CA"
    }
  },
  {
    "type": "Feature",
    "geometry": {
       "type": "Point",
       "coordinates":  [ -117.123964,32.845709 ]
    },
    "properties": {
    "Units of Measure":"Parts per billion",
    "Mean NO2 in 2022":20.699329,
    "Local Site Name":"Kearny Villa Rd.",
    "Address":"6125A KEARNY VILLA RD., SAN DIEGO",
    "State Name":"California",
    "County Name":"San Diego",
    "City Name":"San Diego",
    "CBSA Name":"San Diego-Carlsbad, CA"
    }
  },
  {
    "type": "Feature",
    "geometry": {
       "type": "Point",
       "coordinates":  [ -117.08218,32.985442 ]
    },
    "properties": {
    "Units of Measure":"Parts per billion",
    "Mean NO2 in 2022":30.083333,
    "Local Site Name":"San Diego -Rancho Carmel Drive",
    "Address":"11403 Rancho Carmel Drive",
    "State Name":"California",
    "County Name":"San Diego",
    "City Name":"San Diego",
    "CBSA Name":"San Diego-Carlsbad, CA"
    }
  },
  {
    "type": "Feature",
    "geometry": {
       "type": "Point",
       "coordinates":  [ -116.944308,32.789565 ]
    },
    "properties": {
    "Units of Measure":"Parts per billion",
    "Mean NO2 in 2022":17.373427,
    "Local Site Name":"El Cajon - Lexington Elementary School",
    "Address":"533 First Street",
    "State Name":"California",
    "County Name":"San Diego",
    "City Name":"El Cajon",
    "CBSA Name":"San Diego-Carlsbad, CA"
    }
  },
  {
    "type": "Feature",
    "geometry": {
       "type": "Point",
       "coordinates":  [ -117.142665,32.710177 ]
    },
    "properties": {
    "Units of Measure":"Parts per billion",
    "Mean NO2 in 2022":24.874,
    "Local Site Name":"San Diego - Sherman Elementary School",
    "Address":"450B 24th Street",
    "State Name":"California",
    "County Name":"San Diego",
    "City Name":"San Diego",
    "CBSA Name":"San Diego-Carlsbad, CA"
    }
  },
  {
    "type": "Feature",
    "geometry": {
       "type": "Point",
       "coordinates":  [ -122.399044,37.765946 ]
    },
    "properties": {
    "Units of Measure":"Parts per billion",
    "Mean NO2 in 2022":15.512134,
    "Local Site Name":"San Francisco",
    "Address":"10 ARKANSAS ST.",
    "State Name":"California",
    "County Name":"San Francisco",
    "City Name":"San Francisco",
    "CBSA Name":"San Francisco-Oakland-Hayward, CA"
    }
  },
  {
    "type": "Feature",
    "geometry": {
       "type": "Point",
       "coordinates":  [ -121.281414,37.961578 ]
    },
    "properties": {
    "Units of Measure":"Parts per billion",
    "Mean NO2 in 2022":19.208523,
    "Local Site Name":"Stockton - University Park",
    "Address":"702 N Aurora Street, Stockton, CA 95202",
    "State Name":"California",
    "County Name":"San Joaquin",
    "City Name":"Stockton",
    "CBSA Name":"Stockton-Lodi, CA"
    }
  },
  {
    "type": "Feature",
    "geometry": {
       "type": "Point",
       "coordinates":  [ -121.442495,37.682635 ]
    },
    "properties": {
    "Units of Measure":"Parts per billion",
    "Mean NO2 in 2022":10.945578,
    "Local Site Name":"Tracy-Airport",
    "Address":"5749 S. TRACY BLVD., TRACY",
    "State Name":"California",
    "County Name":"San Joaquin",
    "City Name":"Tracy",
    "CBSA Name":"Stockton-Lodi, CA"
    }
  },
  {
    "type": "Feature",
    "geometry": {
       "type": "Point",
       "coordinates":  [ -120.50103,35.03146 ]
    },
    "properties": {
    "Units of Measure":"Parts per billion",
    "Mean NO2 in 2022":5.871508,
    "Local Site Name":"Nipomo Regional Park (NRP)",
    "Address":"NIPOMO REGIONAL PARK, NIPOMO, CA.",
    "State Name":"California",
    "County Name":"San Luis Obispo",
    "City Name":"Nipomo",
    "CBSA Name":"San Luis Obispo-Paso Robles-Arroyo Grande, CA"
    }
  },
  {
    "type": "Feature",
    "geometry": {
       "type": "Point",
       "coordinates":  [ -120.66617,35.49453 ]
    },
    "properties": {
    "Units of Measure":"Parts per billion",
    "Mean NO2 in 2022":10.465839,
    "Local Site Name":"Atascadero",
    "Address":"5599 Traffic Way, Atascadero CA",
    "State Name":"California",
    "County Name":"San Luis Obispo",
    "City Name":"Atascadero",
    "CBSA Name":"San Luis Obispo-Paso Robles-Arroyo Grande, CA"
    }
  },
  {
    "type": "Feature",
    "geometry": {
       "type": "Point",
       "coordinates":  [ -122.20337,37.482934 ]
    },
    "properties": {
    "Units of Measure":"Parts per billion",
    "Mean NO2 in 2022":16.357676,
    "Local Site Name":"Redwood City",
    "Address":"897 BARRON AVE.",
    "State Name":"California",
    "County Name":"San Mateo",
    "City Name":"Redwood City",
    "CBSA Name":"San Francisco-Oakland-Hayward, CA"
    }
  },
  {
    "type": "Feature",
    "geometry": {
       "type": "Point",
       "coordinates":  [ -120.428717,34.725352 ]
    },
    "properties": {
    "Units of Measure":"Parts per billion",
    "Mean NO2 in 2022":1.720139,
    "Local Site Name":"Lompoc HSP",
    "Address":"HS & P FACILITY-500 M SW, LOMPOC",
    "State Name":"California",
    "County Name":"Santa Barbara",
    "City Name":"Lompoc",
    "CBSA Name":"Santa Maria-Santa Barbara, CA"
    }
  },
  {
    "type": "Feature",
    "geometry": {
       "type": "Point",
       "coordinates":  [ -119.79146,34.54166 ]
    },
    "properties": {
    "Units of Measure":"Parts per billion",
    "Mean NO2 in 2022":1.693529,
    "Local Site Name":"Paradise Road",
    "Address":"PARADISE RD-LOS PADRES National Forest",
    "State Name":"California",
    "County Name":"Santa Barbara",
    "City Name":"Los Padres National Forest",
    "CBSA Name":"Santa Maria-Santa Barbara, CA"
    }
  },
  {
    "type": "Feature",
    "geometry": {
       "type": "Point",
       "coordinates":  [ -119.457914,34.403052 ]
    },
    "properties": {
    "Units of Measure":"Parts per billion",
    "Mean NO2 in 2022":3.076923,
    "Local Site Name":"Carpinteria",
    "Address":"GOBERNADOR RD, CARPINTERIA",
    "State Name":"California",
    "County Name":"Santa Barbara",
    "City Name":"Carpinteria",
    "CBSA Name":"Santa Maria-Santa Barbara, CA"
    }
  },
  {
    "type": "Feature",
    "geometry": {
       "type": "Point",
       "coordinates":  [ -120.04692,34.48974 ]
    },
    "properties": {
    "Units of Measure":"Parts per billion",
    "Mean NO2 in 2022":1.909605,
    "Local Site Name":"Los Flores Canyon #1",
    "Address":"LFC #1-LAS FLORES CANYON",
    "State Name":"California",
    "County Name":"Santa Barbara",
    "City Name":"Capitan",
    "CBSA Name":"Santa Maria-Santa Barbara, CA"
    }
  },
  {
    "type": "Feature",
    "geometry": {
       "type": "Point",
       "coordinates":  [ -120.4575,34.63782 ]
    },
    "properties": {
    "Units of Measure":"Parts per billion",
    "Mean NO2 in 2022":7.664804,
    "Local Site Name":"Lompoc H Street",
    "Address":"128 S 'H' ST, LOMPOC",
    "State Name":"California",
    "County Name":"Santa Barbara",
    "City Name":"Lompoc",
    "CBSA Name":"Santa Maria-Santa Barbara, CA"
    }
  },
  {
    "type": "Feature",
    "geometry": {
       "type": "Point",
       "coordinates":  [ -121.894898,37.348497 ]
    },
    "properties": {
    "Units of Measure":"Parts per billion",
    "Mean NO2 in 2022":17.566387,
    "Local Site Name":"San Jose - Jackson",
    "Address":"158B JACKSON ST",
    "State Name":"California",
    "County Name":"Santa Clara",
    "City Name":"San Jose",
    "CBSA Name":"San Jose-Sunnyvale-Santa Clara, CA"
    }
  },
  {
    "type": "Feature",
    "geometry": {
       "type": "Point",
       "coordinates":  [ -121.849783,37.338135 ]
    },
    "properties": {
    "Units of Measure":"Parts per billion",
    "Mean NO2 in 2022":20.67437,
    "Local Site Name":"San Jose - Knox Avenue",
    "Address":"1007 Knox Ave",
    "State Name":"California",
    "County Name":"Santa Clara",
    "City Name":"San Jose",
    "CBSA Name":"San Jose-Sunnyvale-Santa Clara, CA"
    }
  },
  {
    "type": "Feature",
    "geometry": {
       "type": "Point",
       "coordinates":  [ -122.237976,38.102507 ]
    },
    "properties": {
    "Units of Measure":"Parts per billion",
    "Mean NO2 in 2022":13.020175,
    "Local Site Name":"Vallejo",
    "Address":"304 TUOLUMNE ST.",
    "State Name":"California",
    "County Name":"Solano",
    "City Name":"Vallejo",
    "CBSA Name":"Vallejo-Fairfield, CA"
    }
  },
  {
    "type": "Feature",
    "geometry": {
       "type": "Point",
       "coordinates":  [ -122.818294,38.403765 ]
    },
    "properties": {
    "Units of Measure":"Parts per billion",
    "Mean NO2 in 2022":8.286777,
    "Local Site Name":"Sebastopol",
    "Address":"103 Morris Street,",
    "State Name":"California",
    "County Name":"Sonoma",
    "City Name":"Sebastopol",
    "CBSA Name":"Santa Rosa, CA"
    }
  },
  {
    "type": "Feature",
    "geometry": {
       "type": "Point",
       "coordinates":  [ -120.836008,37.488317 ]
    },
    "properties": {
    "Units of Measure":"Parts per billion",
    "Mean NO2 in 2022":24.31,
    "Local Site Name":"Turlock",
    "Address":" 900 S MINARET STREET, TURLOCK, CA",
    "State Name":"California",
    "County Name":"Stanislaus",
    "City Name":"Turlock",
    "CBSA Name":"Modesto, CA"
    }
  },
  {
    "type": "Feature",
    "geometry": {
       "type": "Point",
       "coordinates":  [ -121.618549,39.138773 ]
    },
    "properties": {
    "Units of Measure":"Parts per billion",
    "Mean NO2 in 2022":15.656906,
    "Local Site Name":"Yuba City",
    "Address":"773 ALMOND ST, YUBA CITY",
    "State Name":"California",
    "County Name":"Sutter",
    "City Name":"Yuba City",
    "CBSA Name":"Yuba City, CA"
    }
  },
  {
    "type": "Feature",
    "geometry": {
       "type": "Point",
       "coordinates":  [ -119.3129,36.30815 ]
    },
    "properties": {
    "Units of Measure":"Parts per billion",
    "Mean NO2 in 2022":20.403529,
    "Local Site Name":"",
    "Address":"2005 West Ashland Avenue, Suite G, Visalia, CA, 93277",
    "State Name":"California",
    "County Name":"Tulare",
    "City Name":"Visalia",
    "CBSA Name":"Visalia-Porterville, CA"
    }
  },
  {
    "type": "Feature",
    "geometry": {
       "type": "Point",
       "coordinates":  [ -118.683685,34.276316 ]
    },
    "properties": {
    "Units of Measure":"Parts per billion",
    "Mean NO2 in 2022":13.510373,
    "Local Site Name":"Simi Valley-Cochran Street",
    "Address":"5400 COCHRAN STREET, SIMI VALLEY, CA  93063",
    "State Name":"California",
    "County Name":"Ventura",
    "City Name":"Simi Valley",
    "CBSA Name":"Oxnard-Thousand Oaks-Ventura, CA"
    }
  },
  {
    "type": "Feature",
    "geometry": {
       "type": "Point",
       "coordinates":  [ -119.143182,34.25239 ]
    },
    "properties": {
    "Units of Measure":"Parts per billion",
    "Mean NO2 in 2022":10.119342,
    "Local Site Name":"El Rio-Rio Mesa School #2",
    "Address":"545 CENTRAL AVENUE, OXNARD, CA  93030",
    "State Name":"California",
    "County Name":"Ventura",
    "City Name":"",
    "CBSA Name":"Oxnard-Thousand Oaks-Ventura, CA"
    }
  },
  {
    "type": "Feature",
    "geometry": {
       "type": "Point",
       "coordinates":  [ -121.7734,38.53445 ]
    },
    "properties": {
    "Units of Measure":"Parts per billion",
    "Mean NO2 in 2022":9.44142,
    "Local Site Name":"Davis-UCD Campus",
    "Address":"UC DAVIS-CAMPUS, CAMPBELL ROAD WEST OF HIWAY 113 & SOUTH OF HUTCHISON DRIVE.",
    "State Name":"California",
    "County Name":"Yolo",
    "City Name":"",
    "CBSA Name":"Sacramento--Roseville--Arden-Arcade, CA"
    }
  },
  {
    "type": "Feature",
    "geometry": {
       "type": "Point",
       "coordinates":  [ -104.94984,39.838119 ]
    },
    "properties": {
    "Units of Measure":"Parts per billion",
    "Mean NO2 in 2022":32.689912,
    "Local Site Name":"Welby",
    "Address":"3174 E. 78TH AVE.",
    "State Name":"Colorado",
    "County Name":"Adams",
    "City Name":"Welby",
    "CBSA Name":"Denver-Aurora-Lakewood, CO"
    }
  },
  {
    "type": "Feature",
    "geometry": {
       "type": "Point",
       "coordinates":  [ -107.254118,37.205862 ]
    },
    "properties": {
    "Units of Measure":"Parts per billion",
    "Mean NO2 in 2022":4.953872,
    "Local Site Name":"",
    "Address":"398 CO- 151 Pagosa Springs, CO",
    "State Name":"Colorado",
    "County Name":"Archuleta",
    "City Name":"",
    "CBSA Name":""
    }
  },
  {
    "type": "Feature",
    "geometry": {
       "type": "Point",
       "coordinates":  [ -107.6023,38.8764 ]
    },
    "properties": {
    "Units of Measure":"Parts per billion",
    "Mean NO2 in 2022":4.31831,
    "Local Site Name":"Paonia, Colorado",
    "Address":"Paonia, Colorado",
    "State Name":"Colorado",
    "County Name":"Delta",
    "City Name":"",
    "CBSA Name":""
    }
  },
  {
    "type": "Feature",
    "geometry": {
       "type": "Point",
       "coordinates":  [ -104.987625,39.751184 ]
    },
    "properties": {
    "Units of Measure":"Parts per billion",
    "Mean NO2 in 2022":28.680597,
    "Local Site Name":"DENVER - CAMP",
    "Address":"2105 BROADWAY",
    "State Name":"Colorado",
    "County Name":"Denver",
    "City Name":"Denver",
    "CBSA Name":"Denver-Aurora-Lakewood, CO"
    }
  },
  {
    "type": "Feature",
    "geometry": {
       "type": "Point",
       "coordinates":  [ -105.00518,39.77949 ]
    },
    "properties": {
    "Units of Measure":"Parts per billion",
    "Mean NO2 in 2022":28.840226,
    "Local Site Name":"La Casa",
    "Address":"4545 Navajo St.",
    "State Name":"Colorado",
    "County Name":"Denver",
    "City Name":"Denver",
    "CBSA Name":"Denver-Aurora-Lakewood, CO"
    }
  },
  {
    "type": "Feature",
    "geometry": {
       "type": "Point",
       "coordinates":  [ -105.0153,39.73217 ]
    },
    "properties": {
    "Units of Measure":"Parts per billion",
    "Mean NO2 in 2022":35.182692,
    "Local Site Name":"I-25",
    "Address":"971 Yuma Street",
    "State Name":"Colorado",
    "County Name":"Denver",
    "City Name":"Denver",
    "CBSA Name":"Denver-Aurora-Lakewood, CO"
    }
  },
  {
    "type": "Feature",
    "geometry": {
       "type": "Point",
       "coordinates":  [ -104.9886,39.7861 ]
    },
    "properties": {
    "Units of Measure":"Parts per billion",
    "Mean NO2 in 2022":40.621805,
    "Local Site Name":"Globeville",
    "Address":"4903 Acoma St.",
    "State Name":"Colorado",
    "County Name":"Denver",
    "City Name":"Denver",
    "CBSA Name":"Denver-Aurora-Lakewood, CO"
    }
  },
  {
    "type": "Feature",
    "geometry": {
       "type": "Point",
       "coordinates":  [ -106.385,40.5506 ]
    },
    "properties": {
    "Units of Measure":"Parts per billion",
    "Mean NO2 in 2022":4.307692,
    "Local Site Name":"Hebron, Colorado",
    "Address":"Hebron, Colorado",
    "State Name":"Colorado",
    "County Name":"Jackson",
    "City Name":"",
    "CBSA Name":""
    }
  },
  {
    "type": "Feature",
    "geometry": {
       "type": "Point",
       "coordinates":  [ -105.188587,39.912799 ]
    },
    "properties": {
    "Units of Measure":"Parts per billion",
    "Mean NO2 in 2022":6.906015,
    "Local Site Name":"ROCKY FLATS-N",
    "Address":"16600 W COLO #128",
    "State Name":"Colorado",
    "County Name":"Jefferson",
    "City Name":"",
    "CBSA Name":"Denver-Aurora-Lakewood, CO"
    }
  },
  {
    "type": "Feature",
    "geometry": {
       "type": "Point",
       "coordinates":  [ -107.484167,37.30389 ]
    },
    "properties": {
    "Units of Measure":"Parts per billion",
    "Mean NO2 in 2022":2.284513,
    "Local Site Name":"",
    "Address":"Weminuche Wilderness Area - Shamrock Station",
    "State Name":"Colorado",
    "County Name":"La Plata",
    "City Name":"",
    "CBSA Name":"Durango, CO"
    }
  },
  {
    "type": "Feature",
    "geometry": {
       "type": "Point",
       "coordinates":  [ -107.62863,37.13678 ]
    },
    "properties": {
    "Units of Measure":"Parts per billion",
    "Mean NO2 in 2022":6.522848,
    "Local Site Name":"UTE 1",
    "Address":"1 MI. NE OF IGNACIO ON COUNTY RD. 517",
    "State Name":"Colorado",
    "County Name":"La Plata",
    "City Name":"",
    "CBSA Name":"Durango, CO"
    }
  },
  {
    "type": "Feature",
    "geometry": {
       "type": "Point",
       "coordinates":  [ -107.870219,37.10258 ]
    },
    "properties": {
    "Units of Measure":"Parts per billion",
    "Mean NO2 in 2022":9.845638,
    "Local Site Name":"UTE 3",
    "Address":"7571 HWY. 5505",
    "State Name":"Colorado",
    "County Name":"La Plata",
    "City Name":"",
    "CBSA Name":"Durango, CO"
    }
  },
  {
    "type": "Feature",
    "geometry": {
       "type": "Point",
       "coordinates":  [ -108.761389,40.086944 ]
    },
    "properties": {
    "Units of Measure":"Parts per billion",
    "Mean NO2 in 2022":4.120763,
    "Local Site Name":"Rangely, Golf Course",
    "Address":"Rangely Colorado, Golf Course",
    "State Name":"Colorado",
    "County Name":"Rio Blanco",
    "City Name":"Rangely",
    "CBSA Name":""
    }
  },
  {
    "type": "Feature",
    "geometry": {
       "type": "Point",
       "coordinates":  [ -108.2183,39.8723 ]
    },
    "properties": {
    "Units of Measure":"Parts per billion",
    "Mean NO2 in 2022":1.176536,
    "Local Site Name":"",
    "Address":"Piceance Basin - Mobile",
    "State Name":"Colorado",
    "County Name":"Rio Blanco",
    "City Name":"",
    "CBSA Name":""
    }
  },
  {
    "type": "Feature",
    "geometry": {
       "type": "Point",
       "coordinates":  [ -104.72613,40.181625 ]
    },
    "properties": {
    "Units of Measure":"Parts per billion",
    "Mean NO2 in 2022":16.687449,
    "Local Site Name":"Platteville Atmospheric Observatory",
    "Address":"17065 County Road 28",
    "State Name":"Colorado",
    "County Name":"Weld",
    "City Name":"Platteville",
    "CBSA Name":"Greeley, CO"
    }
  },
  {
    "type": "Feature",
    "geometry": {
       "type": "Point",
       "coordinates":  [ -73.336667,41.118333 ]
    },
    "properties": {
    "Units of Measure":"Parts per billion",
    "Mean NO2 in 2022":22.750562,
    "Local Site Name":"Sherwood Island Connector",
    "Address":"SHERWOOD ISLAND STATE PARK",
    "State Name":"Connecticut",
    "County Name":"Fairfield",
    "City Name":"Westport",
    "CBSA Name":"Bridgeport-Stamford-Norwalk, CT"
    }
  },
  {
    "type": "Feature",
    "geometry": {
       "type": "Point",
       "coordinates":  [ -72.679923,41.771444 ]
    },
    "properties": {
    "Units of Measure":"Parts per billion",
    "Mean NO2 in 2022":24.215642,
    "Local Site Name":"Huntley Place-Hartford",
    "Address":"10 Huntley Place",
    "State Name":"Connecticut",
    "County Name":"Hartford",
    "City Name":"Hartford",
    "CBSA Name":"Hartford-West Hartford-East Hartford, CT"
    }
  },
  {
    "type": "Feature",
    "geometry": {
       "type": "Point",
       "coordinates":  [ -72.631667,41.784722 ]
    },
    "properties": {
    "Units of Measure":"Parts per billion",
    "Mean NO2 in 2022":17.66236,
    "Local Site Name":"McAuliffe Park",
    "Address":"Remington Road (see coordinates)",
    "State Name":"Connecticut",
    "County Name":"Hartford",
    "City Name":"East Hartford",
    "CBSA Name":"Hartford-West Hartford-East Hartford, CT"
    }
  },
  {
    "type": "Feature",
    "geometry": {
       "type": "Point",
       "coordinates":  [ -72.902871,41.3014 ]
    },
    "properties": {
    "Units of Measure":"Parts per billion",
    "Mean NO2 in 2022":25.748864,
    "Local Site Name":"Criscuolo Park-New Haven",
    "Address":"1JAMES STREET",
    "State Name":"Connecticut",
    "County Name":"New Haven",
    "City Name":"New Haven",
    "CBSA Name":"New Haven-Milford, CT"
    }
  },
  {
    "type": "Feature",
    "geometry": {
       "type": "Point",
       "coordinates":  [ -75.558056,39.739444 ]
    },
    "properties": {
    "Units of Measure":"Parts per billion",
    "Mean NO2 in 2022":25.985185,
    "Local Site Name":"MLK  CORNER OF MLK BLVD AND JUSTISON ST",
    "Address":"MLK BLVD AND JUSTISON ST.",
    "State Name":"Delaware",
    "County Name":"New Castle",
    "City Name":"Wilmington",
    "CBSA Name":"Philadelphia-Camden-Wilmington, PA-NJ-DE-MD"
    }
  },
  {
    "type": "Feature",
    "geometry": {
       "type": "Point",
       "coordinates":  [ -76.958072,38.895572 ]
    },
    "properties": {
    "Units of Measure":"Parts per billion",
    "Mean NO2 in 2022":23.29641,
    "Local Site Name":"RIVER TERRACE",
    "Address":"420 34th Street N.E.,Washington, DC 20019",
    "State Name":"District Of Columbia",
    "County Name":"District of Columbia",
    "City Name":"Washington",
    "CBSA Name":"Washington-Arlington-Alexandria, DC-VA-MD-WV"
    }
  },
  {
    "type": "Feature",
    "geometry": {
       "type": "Point",
       "coordinates":  [ -77.013178,38.921847 ]
    },
    "properties": {
    "Units of Measure":"Parts per billion",
    "Mean NO2 in 2022":18.989372,
    "Local Site Name":"MCMILLAN  NCore-PAMS",
    "Address":"2500 1ST STREET, N.W. WASHINGTON DC",
    "State Name":"District Of Columbia",
    "County Name":"District of Columbia",
    "City Name":"Washington",
    "CBSA Name":"Washington-Arlington-Alexandria, DC-VA-MD-WV"
    }
  },
  {
    "type": "Feature",
    "geometry": {
       "type": "Point",
       "coordinates":  [ -77.013178,38.921847 ]
    },
    "properties": {
    "Units of Measure":"Parts per billion",
    "Mean NO2 in 2022":18.869856,
    "Local Site Name":"MCMILLAN  NCore-PAMS",
    "Address":"2500 1ST STREET, N.W. WASHINGTON DC",
    "State Name":"District Of Columbia",
    "County Name":"District of Columbia",
    "City Name":"Washington",
    "CBSA Name":"Washington-Arlington-Alexandria, DC-VA-MD-WV"
    }
  },
  {
    "type": "Feature",
    "geometry": {
       "type": "Point",
       "coordinates":  [ -77.016715,38.970092 ]
    },
    "properties": {
    "Units of Measure":"Parts per billion",
    "Mean NO2 in 2022":24.489286,
    "Local Site Name":"Takoma Rec Center",
    "Address":"301 Van Buren Street, N.W. Washington DC 20012",
    "State Name":"District Of Columbia",
    "County Name":"District of Columbia",
    "City Name":"Washington",
    "CBSA Name":"Washington-Arlington-Alexandria, DC-VA-MD-WV"
    }
  },
  {
    "type": "Feature",
    "geometry": {
       "type": "Point",
       "coordinates":  [ -76.953426,38.89477 ]
    },
    "properties": {
    "Units of Measure":"Parts per billion",
    "Mean NO2 in 2022":27.545972,
    "Local Site Name":"Near Road",
    "Address":"3600 Benning Road N.E.",
    "State Name":"District Of Columbia",
    "County Name":"District of Columbia",
    "City Name":"Washington",
    "CBSA Name":"Washington-Arlington-Alexandria, DC-VA-MD-WV"
    }
  },
  {
    "type": "Feature",
    "geometry": {
       "type": "Point",
       "coordinates":  [ -80.169817,26.132677 ]
    },
    "properties": {
    "Units of Measure":"Parts per billion",
    "Mean NO2 in 2022":25.960588,
    "Local Site Name":"Near Road - Fort Lauderdale",
    "Address":"799 North I-95, Ft. Lauderdale, FL 33311",
    "State Name":"Florida",
    "County Name":"Broward",
    "City Name":"Fort Lauderdale",
    "CBSA Name":"Miami-Fort Lauderdale-West Palm Beach, FL"
    }
  },
  {
    "type": "Feature",
    "geometry": {
       "type": "Point",
       "coordinates":  [ -80.111152,26.087567 ]
    },
    "properties": {
    "Units of Measure":"Parts per billion",
    "Mean NO2 in 2022":16.864912,
    "Local Site Name":"Dr. Von Mizell-Eula Johnson State Park (prev. John U Lloyd State Park)",
    "Address":"7000 N. Ocean Drive, Dania, FL 33004",
    "State Name":"Florida",
    "County Name":"Broward",
    "City Name":"Hollywood",
    "CBSA Name":"Miami-Fort Lauderdale-West Palm Beach, FL"
    }
  },
  {
    "type": "Feature",
    "geometry": {
       "type": "Point",
       "coordinates":  [ -81.635396,30.356339 ]
    },
    "properties": {
    "Units of Measure":"Parts per billion",
    "Mean NO2 in 2022":16.430814,
    "Local Site Name":"Kooker Park",
    "Address":"2900 Bennett Street, Jacksonville, FL 32206",
    "State Name":"Florida",
    "County Name":"Duval",
    "City Name":"Jacksonville",
    "CBSA Name":"Jacksonville, FL"
    }
  },
  {
    "type": "Feature",
    "geometry": {
       "type": "Point",
       "coordinates":  [ -81.606833,30.262778 ]
    },
    "properties": {
    "Units of Measure":"Parts per billion",
    "Mean NO2 in 2022":21.503636,
    "Local Site Name":"Pepsi Place",
    "Address":"5895 Pepsi Place, Jacksonville, FL 32216",
    "State Name":"Florida",
    "County Name":"Duval",
    "City Name":"Jacksonville",
    "CBSA Name":"Jacksonville, FL"
    }
  },
  {
    "type": "Feature",
    "geometry": {
       "type": "Point",
       "coordinates":  [ -82.469532,27.955133 ]
    },
    "properties": {
    "Units of Measure":"Parts per billion",
    "Mean NO2 in 2022":18.641954,
    "Local Site Name":"Munro Street (Near-Road)",
    "Address":"1497 N Munro Street, Tampa, FL 33607",
    "State Name":"Florida",
    "County Name":"Hillsborough",
    "City Name":"Tampa",
    "CBSA Name":"Tampa-St. Petersburg-Clearwater, FL"
    }
  },
  {
    "type": "Feature",
    "geometry": {
       "type": "Point",
       "coordinates":  [ -80.38259,25.899539 ]
    },
    "properties": {
    "Units of Measure":"Parts per billion",
    "Mean NO2 in 2022":25.425434,
    "Local Site Name":"PENNSUCO",
    "Address":"14001-14027 N Okeechobee Rd, Hialeah, FL 33018",
    "State Name":"Florida",
    "County Name":"Miami-Dade",
    "City Name":"Miami",
    "CBSA Name":"Miami-Fort Lauderdale-West Palm Beach, FL"
    }
  },
  {
    "type": "Feature",
    "geometry": {
       "type": "Point",
       "coordinates":  [ -80.16175,25.732878 ]
    },
    "properties": {
    "Units of Measure":"Parts per billion",
    "Mean NO2 in 2022":9.862712,
    "Local Site Name":"Rosenstiel",
    "Address":"4600 Rickenbacker Causeway, Miami, FL 33149",
    "State Name":"Florida",
    "County Name":"Miami-Dade",
    "City Name":"Miami",
    "CBSA Name":"Miami-Fort Lauderdale-West Palm Beach, FL"
    }
  },
  {
    "type": "Feature",
    "geometry": {
       "type": "Point",
       "coordinates":  [ -80.284206,25.785472 ]
    },
    "properties": {
    "Units of Measure":"Parts per billion",
    "Mean NO2 in 2022":26.501136,
    "Local Site Name":"Perimeter Road",
    "Address":"5600 Perimeter Road",
    "State Name":"Florida",
    "County Name":"Miami-Dade",
    "City Name":"Miami",
    "CBSA Name":"Miami-Fort Lauderdale-West Palm Beach, FL"
    }
  },
  {
    "type": "Feature",
    "geometry": {
       "type": "Point",
       "coordinates":  [ -81.3625,28.596389 ]
    },
    "properties": {
    "Units of Measure":"Parts per billion",
    "Mean NO2 in 2022":8.862,
    "Local Site Name":"WINTER PARK",
    "Address":"213 S. Denning Ave, Winter Park, FL 32789",
    "State Name":"Florida",
    "County Name":"Orange",
    "City Name":"Winter Park",
    "CBSA Name":"Orlando-Kissimmee-Sanford, FL"
    }
  },
  {
    "type": "Feature",
    "geometry": {
       "type": "Point",
       "coordinates":  [ -82.739875,27.785866 ]
    },
    "properties": {
    "Units of Measure":"Parts per billion",
    "Mean NO2 in 2022":9.880556,
    "Local Site Name":"Azalea Park",
    "Address":"7200-22 Avenue N., St. Petersburg, FL 33710",
    "State Name":"Florida",
    "County Name":"Pinellas",
    "City Name":"Saint Petersburg",
    "CBSA Name":"Tampa-St. Petersburg-Clearwater, FL"
    }
  },
  {
    "type": "Feature",
    "geometry": {
       "type": "Point",
       "coordinates":  [ -82.665251,27.834409 ]
    },
    "properties": {
    "Units of Measure":"Parts per billion",
    "Mean NO2 in 2022":16.111732,
    "Local Site Name":"Sawgrass Lake Park (Near-Road)",
    "Address":"6853 25th Street N., Petersburg, FL, 33702",
    "State Name":"Florida",
    "County Name":"Pinellas",
    "City Name":"Saint Petersburg",
    "CBSA Name":"Tampa-St. Petersburg-Clearwater, FL"
    }
  },
  {
    "type": "Feature",
    "geometry": {
       "type": "Point",
       "coordinates":  [ -84.2905,33.6878 ]
    },
    "properties": {
    "Units of Measure":"Parts per billion",
    "Mean NO2 in 2022":22.075214,
    "Local Site Name":"South DeKalb",
    "Address":"2300-C Wildcat Road, Decatur GA 30034",
    "State Name":"Georgia",
    "County Name":"DeKalb",
    "City Name":"",
    "CBSA Name":"Atlanta-Sandy Springs-Roswell, GA"
    }
  },
  {
    "type": "Feature",
    "geometry": {
       "type": "Point",
       "coordinates":  [ -84.272614,33.698643 ]
    },
    "properties": {
    "Units of Measure":"Parts per billion",
    "Mean NO2 in 2022":29.01583,
    "Local Site Name":"NR-285",
    "Address":"3073 PANTHERSVILLE ROAD, DECATUR, GA 30034",
    "State Name":"Georgia",
    "County Name":"DeKalb",
    "City Name":"Atlanta",
    "CBSA Name":"Atlanta-Sandy Springs-Roswell, GA"
    }
  },
  {
    "type": "Feature",
    "geometry": {
       "type": "Point",
       "coordinates":  [ -84.3914,33.7784 ]
    },
    "properties": {
    "Units of Measure":"Parts per billion",
    "Mean NO2 in 2022":25.414286,
    "Local Site Name":"NR-GA Tech",
    "Address":"Georgia Institute of Technology, 6th Street and I-75, Atlanta, GA 30313",
    "State Name":"Georgia",
    "County Name":"Fulton",
    "City Name":"Atlanta",
    "CBSA Name":"Atlanta-Sandy Springs-Roswell, GA"
    }
  },
  {
    "type": "Feature",
    "geometry": {
       "type": "Point",
       "coordinates":  [ -158.088613,21.323745 ]
    },
    "properties": {
    "Units of Measure":"Parts per billion",
    "Mean NO2 in 2022":9.992442,
    "Local Site Name":"Kapolei",
    "Address":"2052 LAUWILIWILI ST",
    "State Name":"Hawaii",
    "County Name":"Honolulu",
    "City Name":"",
    "CBSA Name":"Urban Honolulu, HI"
    }
  },
  {
    "type": "Feature",
    "geometry": {
       "type": "Point",
       "coordinates":  [ -159.36624,21.949599 ]
    },
    "properties": {
    "Units of Measure":"Parts per billion",
    "Mean NO2 in 2022":4.790588,
    "Local Site Name":"Niumalu",
    "Address":"2342 HULEMALU ROAD, KAUAI",
    "State Name":"Hawaii",
    "County Name":"Kauai",
    "City Name":"",
    "CBSA Name":"Kapaa, HI"
    }
  },
  {
    "type": "Feature",
    "geometry": {
       "type": "Point",
       "coordinates":  [ -116.347853,43.600699 ]
    },
    "properties": {
    "Units of Measure":"Parts per billion",
    "Mean NO2 in 2022":23.872472,
    "Local Site Name":"Meridian - St. Luke's",
    "Address":"520 S. EAGLE ROAD,  MERIDIAN",
    "State Name":"Idaho",
    "County Name":"Ada",
    "City Name":"",
    "CBSA Name":"Boise City, ID"
    }
  },
  {
    "type": "Feature",
    "geometry": {
       "type": "Point",
       "coordinates":  [ -87.713488,41.7514 ]
    },
    "properties": {
    "Units of Measure":"Parts per billion",
    "Mean NO2 in 2022":23.760595,
    "Local Site Name":"COM ED MAINTENANCE BLDG",
    "Address":"7801 LAWNDALE",
    "State Name":"Illinois",
    "County Name":"Cook",
    "City Name":"Chicago",
    "CBSA Name":"Chicago-Naperville-Elgin, IL-IN-WI"
    }
  },
  {
    "type": "Feature",
    "geometry": {
       "type": "Point",
       "coordinates":  [ -87.557406,41.57862 ]
    },
    "properties": {
    "Units of Measure":"Parts per billion",
    "Mean NO2 in 2022":29.793358,
    "Local Site Name":"Kingery Near Road #1",
    "Address":"KINGERY EXPRESSWAY & TORRENCE AVENUE",
    "State Name":"Illinois",
    "County Name":"Cook",
    "City Name":"Lansing",
    "CBSA Name":"Chicago-Naperville-Elgin, IL-IN-WI"
    }
  },
  {
    "type": "Feature",
    "geometry": {
       "type": "Point",
       "coordinates":  [ -87.672995,41.920009 ]
    },
    "properties": {
    "Units of Measure":"Parts per billion",
    "Mean NO2 in 2022":28.344664,
    "Local Site Name":"Kennedy Near Road 2",
    "Address":"Kennedy Expressway West",
    "State Name":"Illinois",
    "County Name":"Cook",
    "City Name":"Chicago",
    "CBSA Name":"Chicago-Naperville-Elgin, IL-IN-WI"
    }
  },
  {
    "type": "Feature",
    "geometry": {
       "type": "Point",
       "coordinates":  [ -87.876265,41.965193 ]
    },
    "properties": {
    "Units of Measure":"Parts per billion",
    "Mean NO2 in 2022":31.10989,
    "Local Site Name":"IEPA TRAILER",
    "Address":"4743 MANNHEIM RD.",
    "State Name":"Illinois",
    "County Name":"Cook",
    "City Name":"Schiller Park",
    "CBSA Name":"Chicago-Naperville-Elgin, IL-IN-WI"
    }
  },
  {
    "type": "Feature",
    "geometry": {
       "type": "Point",
       "coordinates":  [ -87.75247,41.855243 ]
    },
    "properties": {
    "Units of Measure":"Parts per billion",
    "Mean NO2 in 2022":26.344906,
    "Local Site Name":"COOK COUNTY TRAILER",
    "Address":"1820 S. 51ST AVE.",
    "State Name":"Illinois",
    "County Name":"Cook",
    "City Name":"Cicero",
    "CBSA Name":"Chicago-Naperville-Elgin, IL-IN-WI"
    }
  },
  {
    "type": "Feature",
    "geometry": {
       "type": "Point",
       "coordinates":  [ -87.799227,42.139996 ]
    },
    "properties": {
    "Units of Measure":"Parts per billion",
    "Mean NO2 in 2022":15.21978,
    "Local Site Name":"NORTHBROOK WATER PLANT",
    "Address":"750 DUNDEE ROAD",
    "State Name":"Illinois",
    "County Name":"Cook",
    "City Name":"Northbrook",
    "CBSA Name":"Chicago-Naperville-Elgin, IL-IN-WI"
    }
  },
  {
    "type": "Feature",
    "geometry": {
       "type": "Point",
       "coordinates":  [ -89.809739,39.396075 ]
    },
    "properties": {
    "Units of Measure":"Parts per billion",
    "Mean NO2 in 2022":5.182772,
    "Local Site Name":"IEPA TRAILER",
    "Address":"HEATON & DUBOIS",
    "State Name":"Illinois",
    "County Name":"Macoupin",
    "City Name":"Nilwood",
    "CBSA Name":"St. Louis, MO-IL"
    }
  },
  {
    "type": "Feature",
    "geometry": {
       "type": "Point",
       "coordinates":  [ -90.160477,38.612034 ]
    },
    "properties": {
    "Units of Measure":"Parts per billion",
    "Mean NO2 in 2022":20.284615,
    "Local Site Name":"IEPA-RAPS TRAILER",
    "Address":"13TH & TUDOR",
    "State Name":"Illinois",
    "County Name":"Saint Clair",
    "City Name":"East Saint Louis",
    "CBSA Name":"St. Louis, MO-IL"
    }
  },
  {
    "type": "Feature",
    "geometry": {
       "type": "Point",
       "coordinates":  [ -87.304943,41.606662 ]
    },
    "properties": {
    "Units of Measure":"Parts per billion",
    "Mean NO2 in 2022":24.086617,
    "Local Site Name":"Gary-IITRI/ 1219.5 meters east of Tennessee St.- old ammuntion bunker",
    "Address":"201 MISSISSIPPI ST., IITRI BUNKER",
    "State Name":"Indiana",
    "County Name":"Lake",
    "City Name":"Gary",
    "CBSA Name":"Chicago-Naperville-Elgin, IL-IN-WI"
    }
  },
  {
    "type": "Feature",
    "geometry": {
       "type": "Point",
       "coordinates":  [ -86.114444,39.810833 ]
    },
    "properties": {
    "Units of Measure":"Parts per billion",
    "Mean NO2 in 2022":13.626894,
    "Local Site Name":"Indpls- Washington Park/  in parking lot next to police station",
    "Address":"3120 E. 30TH ST., WASHINGTON PARK",
    "State Name":"Indiana",
    "County Name":"Marion",
    "City Name":"Indianapolis (Remainder)",
    "CBSA Name":"Indianapolis-Carmel-Anderson, IN"
    }
  },
  {
    "type": "Feature",
    "geometry": {
       "type": "Point",
       "coordinates":  [ -86.13088,39.787933 ]
    },
    "properties": {
    "Units of Measure":"Parts per billion",
    "Mean NO2 in 2022":21.87037,
    "Local Site Name":"Indpls.- I 70",
    "Address":"1650 Ludlow Ave.- Indianapolis- I 70",
    "State Name":"Indiana",
    "County Name":"Marion",
    "City Name":"Indianapolis (Remainder)",
    "CBSA Name":"Indianapolis-Carmel-Anderson, IN"
    }
  },
  {
    "type": "Feature",
    "geometry": {
       "type": "Point",
       "coordinates":  [ -86.214722,41.69666 ]
    },
    "properties": {
    "Units of Measure":"Parts per billion",
    "Mean NO2 in 2022":12.652768,
    "Local Site Name":"South Bend-Shields Dr.",
    "Address":"2335 SHIELDS DR/ SOUTH BEND CAAP 2",
    "State Name":"Indiana",
    "County Name":"St. Joseph",
    "City Name":"South Bend",
    "CBSA Name":"South Bend-Mishawaka, IN-MI"
    }
  },
  {
    "type": "Feature",
    "geometry": {
       "type": "Point",
       "coordinates":  [ -87.577222,38.013333 ]
    },
    "properties": {
    "Units of Measure":"Parts per billion",
    "Mean NO2 in 2022":12.567033,
    "Local Site Name":"Evansville- Buena Vista",
    "Address":"Evansville-Buena Vista-1110 W. Buena Vista Rd.",
    "State Name":"Indiana",
    "County Name":"Vanderburgh",
    "City Name":"Evansville",
    "CBSA Name":"Evansville, IN-KY"
    }
  },
  {
    "type": "Feature",
    "geometry": {
       "type": "Point",
       "coordinates":  [ -93.643118,41.603159 ]
    },
    "properties": {
    "Units of Measure":"Parts per billion",
    "Mean NO2 in 2022":12.922483,
    "Local Site Name":"CARPENTER",
    "Address":"1907 CARPENTER, DES MOINES IOWA",
    "State Name":"Iowa",
    "County Name":"Polk",
    "City Name":"Des Moines",
    "CBSA Name":"Des Moines-West Des Moines, IA"
    }
  },
  {
    "type": "Feature",
    "geometry": {
       "type": "Point",
       "coordinates":  [ -92.006318,40.695078 ]
    },
    "properties": {
    "Units of Measure":"Parts per billion",
    "Mean NO2 in 2022":2.850505,
    "Local Site Name":"LAKE SUGEMA STATE PARK II",
    "Address":"24430 LACEY TRAIL",
    "State Name":"Iowa",
    "County Name":"Van Buren",
    "City Name":"",
    "CBSA Name":""
    }
  },
  {
    "type": "Feature",
    "geometry": {
       "type": "Point",
       "coordinates":  [ -95.47594,37.67696 ]
    },
    "properties": {
    "Units of Measure":"Parts per billion",
    "Mean NO2 in 2022":5.623529,
    "Local Site Name":"CHANUTE",
    "Address":"1500 WEST SEVENTH",
    "State Name":"Kansas",
    "County Name":"Neosho",
    "City Name":"",
    "CBSA Name":""
    }
  },
  {
    "type": "Feature",
    "geometry": {
       "type": "Point",
       "coordinates":  [ -97.314847,37.702066 ]
    },
    "properties": {
    "Units of Measure":"Parts per billion",
    "Mean NO2 in 2022":15.421569,
    "Local Site Name":"WICHITA HD",
    "Address":"HEALTH DEPT., 1900 EAST 9TH ST.",
    "State Name":"Kansas",
    "County Name":"Sedgwick",
    "City Name":"Wichita",
    "CBSA Name":"Wichita, KS"
    }
  },
  {
    "type": "Feature",
    "geometry": {
       "type": "Point",
       "coordinates":  [ -97.366399,37.47689 ]
    },
    "properties": {
    "Units of Measure":"Parts per billion",
    "Mean NO2 in 2022":6.952439,
    "Local Site Name":"PECK",
    "Address":"707 E 119TH ST SOUTH,PECK COMMUNITY BLDG",
    "State Name":"Kansas",
    "County Name":"Sumner",
    "City Name":"",
    "CBSA Name":"Wichita, KS"
    }
  },
  {
    "type": "Feature",
    "geometry": {
       "type": "Point",
       "coordinates":  [ -99.763424,38.770081 ]
    },
    "properties": {
    "Units of Measure":"Parts per billion",
    "Mean NO2 in 2022":2.453741,
    "Local Site Name":"CEDAR BLUFF",
    "Address":"CEDAR BLUFF RESERVOIR,PRONGHORN & MULEY",
    "State Name":"Kansas",
    "County Name":"Trego",
    "City Name":"",
    "CBSA Name":""
    }
  },
  {
    "type": "Feature",
    "geometry": {
       "type": "Point",
       "coordinates":  [ -94.635605,39.117219 ]
    },
    "properties": {
    "Units of Measure":"Parts per billion",
    "Mean NO2 in 2022":24.432911,
    "Local Site Name":"JFK",
    "Address":"1210 N. 10TH ST.,JFK RECREATION CENTER",
    "State Name":"Kansas",
    "County Name":"Wyandotte",
    "City Name":"Kansas City",
    "CBSA Name":"Kansas City, MO-KS"
    }
  },
  {
    "type": "Feature",
    "geometry": {
       "type": "Point",
       "coordinates":  [ -82.64041,38.45934 ]
    },
    "properties": {
    "Units of Measure":"Parts per billion",
    "Mean NO2 in 2022":15.105525,
    "Local Site Name":"ASHLAND PRIMARY (FIVCO)",
    "Address":"FIVCO HEALTH DEPARTMENT, 2924 HOLT STREET",
    "State Name":"Kentucky",
    "County Name":"Boyd",
    "City Name":"Ashland",
    "CBSA Name":"Huntington-Ashland, WV-KY-OH"
    }
  },
  {
    "type": "Feature",
    "geometry": {
       "type": "Point",
       "coordinates":  [ -84.47445,39.021881 ]
    },
    "properties": {
    "Units of Measure":"Parts per billion",
    "Mean NO2 in 2022":10.70625,
    "Local Site Name":"NORTHERN KENTUCKY UNIVERSITY (NKU)",
    "Address":"524A JOHN'S HILL ROAD",
    "State Name":"Kentucky",
    "County Name":"Campbell",
    "City Name":"Highland Heights",
    "CBSA Name":"Cincinnati, OH-KY-IN"
    }
  },
  {
    "type": "Feature",
    "geometry": {
       "type": "Point",
       "coordinates":  [ -87.075307,37.780776 ]
    },
    "properties": {
    "Units of Measure":"Parts per billion",
    "Mean NO2 in 2022":12.33427,
    "Local Site Name":"OWENSBORO PRIMARY",
    "Address":"716 PLEASANT VALLEY ROAD",
    "State Name":"Kentucky",
    "County Name":"Daviess",
    "City Name":"",
    "CBSA Name":"Owensboro, KY"
    }
  },
  {
    "type": "Feature",
    "geometry": {
       "type": "Point",
       "coordinates":  [ -84.49761,38.06503 ]
    },
    "properties": {
    "Units of Measure":"Parts per billion",
    "Mean NO2 in 2022":16.053409,
    "Local Site Name":"LEXINGTON PRIMARY",
    "Address":"FAYETTE COUNTY HEALTH DEPT, 650 NEWTOWN PIKE",
    "State Name":"Kentucky",
    "County Name":"Fayette",
    "City Name":"Lexington-Fayette (corporate name for Lexington)",
    "CBSA Name":"Lexington-Fayette, KY"
    }
  },
  {
    "type": "Feature",
    "geometry": {
       "type": "Point",
       "coordinates":  [ -88.57251,37.05822 ]
    },
    "properties": {
    "Units of Measure":"Parts per billion",
    "Mean NO2 in 2022":12.181461,
    "Local Site Name":"JACKSON PURCHASE (PADUCAH PRIMARY)",
    "Address":"JACKSON PURCHASE RECC, 2901 POWELL STREET",
    "State Name":"Kentucky",
    "County Name":"McCracken",
    "City Name":"Paducah",
    "CBSA Name":"Paducah, KY-IL"
    }
  },
  {
    "type": "Feature",
    "geometry": {
       "type": "Point",
       "coordinates":  [ -90.965628,30.229653 ]
    },
    "properties": {
    "Units of Measure":"Parts per billion",
    "Mean NO2 in 2022":14.838662,
    "Local Site Name":"Dutchtown",
    "Address":"11153 Kling Road",
    "State Name":"Louisiana",
    "County Name":"Ascension",
    "City Name":"",
    "CBSA Name":"Baton Rouge, LA"
    }
  },
  {
    "type": "Feature",
    "geometry": {
       "type": "Point",
       "coordinates":  [ -93.285084,30.262604 ]
    },
    "properties": {
    "Units of Measure":"Parts per billion",
    "Mean NO2 in 2022":12.962222,
    "Local Site Name":"Westlake",
    "Address":"2646 John Stine Road",
    "State Name":"Louisiana",
    "County Name":"Calcasieu",
    "City Name":"Westlake (RR name West Lake)",
    "CBSA Name":"Lake Charles, LA"
    }
  },
  {
    "type": "Feature",
    "geometry": {
       "type": "Point",
       "coordinates":  [ -91.179219,30.461981 ]
    },
    "properties": {
    "Units of Measure":"Parts per billion",
    "Mean NO2 in 2022":17.7844,
    "Local Site Name":"Capitol",
    "Address":"1061-A Leesville Ave",
    "State Name":"Louisiana",
    "County Name":"East Baton Rouge",
    "City Name":"Baton Rouge",
    "CBSA Name":"Baton Rouge, LA"
    }
  },
  {
    "type": "Feature",
    "geometry": {
       "type": "Point",
       "coordinates":  [ -91.056068,30.700895 ]
    },
    "properties": {
    "Units of Measure":"Parts per billion",
    "Mean NO2 in 2022":3.276404,
    "Local Site Name":"Pride",
    "Address":"11245 Port Hudson-Pride Rd. Zachary, La",
    "State Name":"Louisiana",
    "County Name":"East Baton Rouge",
    "City Name":"",
    "CBSA Name":"Baton Rouge, LA"
    }
  },
  {
    "type": "Feature",
    "geometry": {
       "type": "Point",
       "coordinates":  [ -91.315418,30.221255 ]
    },
    "properties": {
    "Units of Measure":"Parts per billion",
    "Mean NO2 in 2022":7.566292,
    "Local Site Name":"Bayou Plaquemine",
    "Address":"65180 Belleview Road",
    "State Name":"Louisiana",
    "County Name":"Iberville",
    "City Name":"",
    "CBSA Name":"Baton Rouge, LA"
    }
  },
  {
    "type": "Feature",
    "geometry": {
       "type": "Point",
       "coordinates":  [ -90.272826,30.041238 ]
    },
    "properties": {
    "Units of Measure":"Parts per billion",
    "Mean NO2 in 2022":16.494118,
    "Local Site Name":"Kenner",
    "Address":"100 West Temple Pl",
    "State Name":"Louisiana",
    "County Name":"Jefferson",
    "City Name":"Kenner",
    "CBSA Name":"New Orleans-Metairie, LA"
    }
  },
  {
    "type": "Feature",
    "geometry": {
       "type": "Point",
       "coordinates":  [ -90.811383,30.315406 ]
    },
    "properties": {
    "Units of Measure":"Parts per billion",
    "Mean NO2 in 2022":4.96,
    "Local Site Name":"French Settlement",
    "Address":"16627 Perrilloux Ln@ Hwy 16",
    "State Name":"Louisiana",
    "County Name":"Livingston",
    "City Name":"French Settlement",
    "CBSA Name":"Baton Rouge, LA"
    }
  },
  {
    "type": "Feature",
    "geometry": {
       "type": "Point",
       "coordinates":  [ -90.11819,29.996013 ]
    },
    "properties": {
    "Units of Measure":"Parts per billion",
    "Mean NO2 in 2022":22.530038,
    "Local Site Name":"I-610",
    "Address":"I610 at West End Blvd.",
    "State Name":"Louisiana",
    "County Name":"Orleans",
    "City Name":"New Orleans",
    "CBSA Name":"New Orleans-Metairie, LA"
    }
  },
  {
    "type": "Feature",
    "geometry": {
       "type": "Point",
       "coordinates":  [ -91.213556,30.500642 ]
    },
    "properties": {
    "Units of Measure":"Parts per billion",
    "Mean NO2 in 2022":17.470472,
    "Local Site Name":"Port Allen",
    "Address":"1005 Northwest Drive, Port Allen",
    "State Name":"Louisiana",
    "County Name":"West Baton Rouge",
    "City Name":"",
    "CBSA Name":"Baton Rouge, LA"
    }
  },
  {
    "type": "Feature",
    "geometry": {
       "type": "Point",
       "coordinates":  [ -68.033006,46.696431 ]
    },
    "properties": {
    "Units of Measure":"Parts per billion",
    "Mean NO2 in 2022":4.981746,
    "Local Site Name":"MICMAC HEALTH DEPARTMENT",
    "Address":"8 NORTHERN ROAD, PRESQUE ISLE, ME 04769",
    "State Name":"Maine",
    "County Name":"Aroostook",
    "City Name":"Presque Isle",
    "CBSA Name":""
    }
  },
  {
    "type": "Feature",
    "geometry": {
       "type": "Point",
       "coordinates":  [ -70.268965,43.660246 ]
    },
    "properties": {
    "Units of Measure":"Parts per billion",
    "Mean NO2 in 2022":15.535616,
    "Local Site Name":"PDO - Portland Deering Oaks",
    "Address":"356 State Street, Portland,  Maine",
    "State Name":"Maine",
    "County Name":"Cumberland",
    "City Name":"Portland",
    "CBSA Name":"Portland-South Portland, ME"
    }
  },
  {
    "type": "Feature",
    "geometry": {
       "type": "Point",
       "coordinates":  [ -76.746814,39.371679 ]
    },
    "properties": {
    "Units of Measure":"Parts per billion",
    "Mean NO2 in 2022":26.406642,
    "Local Site Name":"Baltimore County Near Road",
    "Address":"4380 OLD COURT RD",
    "State Name":"Maryland",
    "County Name":"Baltimore",
    "City Name":"Lochearn",
    "CBSA Name":"Baltimore-Columbia-Towson, MD"
    }
  },
  {
    "type": "Feature",
    "geometry": {
       "type": "Point",
       "coordinates":  [ -76.474444,39.310833 ]
    },
    "properties": {
    "Units of Measure":"Parts per billion",
    "Mean NO2 in 2022":20.210795,
    "Local Site Name":"Essex",
    "Address":"600 Dorsey Avenue",
    "State Name":"Maryland",
    "County Name":"Baltimore",
    "City Name":"Essex",
    "CBSA Name":"Baltimore-Columbia-Towson, MD"
    }
  },
  {
    "type": "Feature",
    "geometry": {
       "type": "Point",
       "coordinates":  [ -79.012,39.70595 ]
    },
    "properties": {
    "Units of Measure":"Parts per billion",
    "Mean NO2 in 2022":2.589057,
    "Local Site Name":"Piney Run",
    "Address":"Piney Run, Frostburg Reservoir, Finzel",
    "State Name":"Maryland",
    "County Name":"Garrett",
    "City Name":"Grantsville",
    "CBSA Name":""
    }
  },
  {
    "type": "Feature",
    "geometry": {
       "type": "Point",
       "coordinates":  [ -76.84611,39.14313 ]
    },
    "properties": {
    "Units of Measure":"Parts per billion",
    "Mean NO2 in 2022":28.94581,
    "Local Site Name":"Howard County Near Road",
    "Address":"Interstate 95 South Welocme Center",
    "State Name":"Maryland",
    "County Name":"Howard",
    "City Name":"North Laurel",
    "CBSA Name":"Baltimore-Columbia-Towson, MD"
    }
  },
  {
    "type": "Feature",
    "geometry": {
       "type": "Point",
       "coordinates":  [ -76.878333,39.055277 ]
    },
    "properties": {
    "Units of Measure":"Parts per billion",
    "Mean NO2 in 2022":15.695294,
    "Local Site Name":"HU-Beltsville",
    "Address":"Howard University's Beltsville Laboratory, 12003 Old Baltimore Pike",
    "State Name":"Maryland",
    "County Name":"Prince George's",
    "City Name":"Beltsville",
    "CBSA Name":"Washington-Arlington-Alexandria, DC-VA-MD-WV"
    }
  },
  {
    "type": "Feature",
    "geometry": {
       "type": "Point",
       "coordinates":  [ -76.58905,39.33746 ]
    },
    "properties": {
    "Units of Measure":"Parts per billion",
    "Mean NO2 in 2022":18.5232,
    "Local Site Name":"Lake Montebello",
    "Address":"3900 Hillen Road",
    "State Name":"Maryland",
    "County Name":"Baltimore (City)",
    "City Name":"Baltimore",
    "CBSA Name":"Baltimore-Columbia-Towson, MD"
    }
  },
  {
    "type": "Feature",
    "geometry": {
       "type": "Point",
       "coordinates":  [ -70.970816,42.474642 ]
    },
    "properties": {
    "Units of Measure":"Parts per billion",
    "Mean NO2 in 2022":14.147525,
    "Local Site Name":"LYNN WATER TREATMENT PLANT",
    "Address":"390 PARKLAND",
    "State Name":"Massachusetts",
    "County Name":"Essex",
    "City Name":"Lynn",
    "CBSA Name":"Boston-Cambridge-Newton, MA-NH"
    }
  },
  {
    "type": "Feature",
    "geometry": {
       "type": "Point",
       "coordinates":  [ -72.555112,42.19438 ]
    },
    "properties": {
    "Units of Measure":"Parts per billion",
    "Mean NO2 in 2022":12.977401,
    "Local Site Name":"WESTOVER AFB",
    "Address":"ANDERSON RD AFB",
    "State Name":"Massachusetts",
    "County Name":"Hampden",
    "City Name":"Chicopee",
    "CBSA Name":"Springfield, MA"
    }
  },
  {
    "type": "Feature",
    "geometry": {
       "type": "Point",
       "coordinates":  [ -72.584503,42.120229 ]
    },
    "properties": {
    "Units of Measure":"Parts per billion",
    "Mean NO2 in 2022":21.637931,
    "Local Site Name":"",
    "Address":"600 Liberty St",
    "State Name":"Massachusetts",
    "County Name":"Hampden",
    "City Name":"Springfield",
    "CBSA Name":"Springfield, MA"
    }
  },
  {
    "type": "Feature",
    "geometry": {
       "type": "Point",
       "coordinates":  [ -72.334079,42.298493 ]
    },
    "properties": {
    "Units of Measure":"Parts per billion",
    "Mean NO2 in 2022":4.248588,
    "Local Site Name":"QUABBIN RES",
    "Address":"QUABBIN SUMMIT",
    "State Name":"Massachusetts",
    "County Name":"Hampshire",
    "City Name":"Ware (census name for Ware Center)",
    "CBSA Name":"Springfield, MA"
    }
  },
  {
    "type": "Feature",
    "geometry": {
       "type": "Point",
       "coordinates":  [ -71.306986,42.612085 ]
    },
    "properties": {
    "Units of Measure":"Parts per billion",
    "Mean NO2 in 2022":23.764045,
    "Local Site Name":"ChelmsfordNR",
    "Address":"Manning Rd",
    "State Name":"Massachusetts",
    "County Name":"Middlesex",
    "City Name":"Chelmsford (Chelmsford Center)",
    "CBSA Name":"Boston-Cambridge-Newton, MA-NH"
    }
  },
  {
    "type": "Feature",
    "geometry": {
       "type": "Point",
       "coordinates":  [ -70.963346,42.241229 ]
    },
    "properties": {
    "Units of Measure":"Parts per billion",
    "Mean NO2 in 2022":14.641618,
    "Local Site Name":"",
    "Address":"59 Monatiquot St",
    "State Name":"Massachusetts",
    "County Name":"Norfolk",
    "City Name":"",
    "CBSA Name":"Boston-Cambridge-Newton, MA-NH"
    }
  },
  {
    "type": "Feature",
    "geometry": {
       "type": "Point",
       "coordinates":  [ -71.11397,42.211774 ]
    },
    "properties": {
    "Units of Measure":"Parts per billion",
    "Mean NO2 in 2022":8.209302,
    "Local Site Name":"BLUE HILL OBSERVATORY",
    "Address":"695 HILLSIDE ST Blue Hill Observatory",
    "State Name":"Massachusetts",
    "County Name":"Norfolk",
    "City Name":"Milton",
    "CBSA Name":"Boston-Cambridge-Newton, MA-NH"
    }
  },
  {
    "type": "Feature",
    "geometry": {
       "type": "Point",
       "coordinates":  [ -71.097163,42.348873 ]
    },
    "properties": {
    "Units of Measure":"Parts per billion",
    "Mean NO2 in 2022":22.822857,
    "Local Site Name":"BOSTON KENMORE SQ",
    "Address":"KENMORE SQ",
    "State Name":"Massachusetts",
    "County Name":"Suffolk",
    "City Name":"Boston",
    "CBSA Name":"Boston-Cambridge-Newton, MA-NH"
    }
  },
  {
    "type": "Feature",
    "geometry": {
       "type": "Point",
       "coordinates":  [ -71.0826,42.3295 ]
    },
    "properties": {
    "Units of Measure":"Parts per billion",
    "Mean NO2 in 2022":22.920455,
    "Local Site Name":"DUDLEY SQUARE ROXBURY",
    "Address":"HARRISON AVE",
    "State Name":"Massachusetts",
    "County Name":"Suffolk",
    "City Name":"Boston",
    "CBSA Name":"Boston-Cambridge-Newton, MA-NH"
    }
  },
  {
    "type": "Feature",
    "geometry": {
       "type": "Point",
       "coordinates":  [ -71.056061,42.325186 ]
    },
    "properties": {
    "Units of Measure":"Parts per billion",
    "Mean NO2 in 2022":24.122905,
    "Local Site Name":"VON HILLERN ST",
    "Address":"19 VON HILLERN ST",
    "State Name":"Massachusetts",
    "County Name":"Suffolk",
    "City Name":"Boston",
    "CBSA Name":"Boston-Cambridge-Newton, MA-NH"
    }
  },
  {
    "type": "Feature",
    "geometry": {
       "type": "Point",
       "coordinates":  [ -71.794322,42.263955 ]
    },
    "properties": {
    "Units of Measure":"Parts per billion",
    "Mean NO2 in 2022":23.821839,
    "Local Site Name":"WORCESTER SUMMER STREET",
    "Address":"SUMMER ST",
    "State Name":"Massachusetts",
    "County Name":"Worcester",
    "City Name":"Worcester",
    "CBSA Name":"Worcester, MA-CT"
    }
  },
  {
    "type": "Feature",
    "geometry": {
       "type": "Point",
       "coordinates":  [ -84.562779,42.761387 ]
    },
    "properties": {
    "Units of Measure":"Parts per billion",
    "Mean NO2 in 2022":16.926705,
    "Local Site Name":"FILLEY STREET",
    "Address":"815 FILLEY ST (LANSING)",
    "State Name":"Michigan",
    "County Name":"Ingham",
    "City Name":"Lansing",
    "CBSA Name":"Lansing-East Lansing, MI"
    }
  },
  {
    "type": "Feature",
    "geometry": {
       "type": "Point",
       "coordinates":  [ -85.671339,42.984173 ]
    },
    "properties": {
    "Units of Measure":"Parts per billion",
    "Mean NO2 in 2022":15.660674,
    "Local Site Name":"GR-MONROE",
    "Address":"1179 MONROE  (GRAND RAPIDS)",
    "State Name":"Michigan",
    "County Name":"Kent",
    "City Name":"Grand Rapids",
    "CBSA Name":"Grand Rapids-Wyoming, MI"
    }
  },
  {
    "type": "Feature",
    "geometry": {
       "type": "Point",
       "coordinates":  [ -84.891865,44.310555 ]
    },
    "properties": {
    "Units of Measure":"Parts per billion",
    "Mean NO2 in 2022":2.316575,
    "Local Site Name":"LOCATED ABOUT 1/4 MILE WEST OF SITE",
    "Address":"1769 S JEFFS RD (HOUGHTON LAKE)",
    "State Name":"Michigan",
    "County Name":"Missaukee",
    "City Name":"",
    "CBSA Name":"Cadillac, MI"
    }
  },
  {
    "type": "Feature",
    "geometry": {
       "type": "Point",
       "coordinates":  [ -83.10653,42.302786 ]
    },
    "properties": {
    "Units of Measure":"Parts per billion",
    "Mean NO2 in 2022":23.923204,
    "Local Site Name":"Southwestern H.S.",
    "Address":"150 WATERMAN (DETROIT-SW)",
    "State Name":"Michigan",
    "County Name":"Wayne",
    "City Name":"Detroit",
    "CBSA Name":"Detroit-Warren-Dearborn, MI"
    }
  },
  {
    "type": "Feature",
    "geometry": {
       "type": "Point",
       "coordinates":  [ -83.000138,42.43084 ]
    },
    "properties": {
    "Units of Measure":"Parts per billion",
    "Mean NO2 in 2022":18.987293,
    "Local Site Name":"East 7 Mile",
    "Address":"11600 EAST SEVEN MILE RD (DETROIT-E7M)",
    "State Name":"Michigan",
    "County Name":"Wayne",
    "City Name":"Detroit",
    "CBSA Name":"Detroit-Warren-Dearborn, MI"
    }
  },
  {
    "type": "Feature",
    "geometry": {
       "type": "Point",
       "coordinates":  [ -83.266189,42.385998 ]
    },
    "properties": {
    "Units of Measure":"Parts per billion",
    "Mean NO2 in 2022":26.419444,
    "Local Site Name":"ELIZA-NR",
    "Address":"23751 FENKELL ST (ELIZA HOWELL-NR)",
    "State Name":"Michigan",
    "County Name":"Wayne",
    "City Name":"Detroit",
    "CBSA Name":"Detroit-Warren-Dearborn, MI"
    }
  },
  {
    "type": "Feature",
    "geometry": {
       "type": "Point",
       "coordinates":  [ -83.091943,42.312158 ]
    },
    "properties": {
    "Units of Measure":"Parts per billion",
    "Mean NO2 in 2022":26.865537,
    "Local Site Name":"DP4th - Detroit Police 4th Precinct (GHIB)",
    "Address":"4700 W FORT ST (DP4TH - GHIB)",
    "State Name":"Michigan",
    "County Name":"Wayne",
    "City Name":"Detroit",
    "CBSA Name":"Detroit-Warren-Dearborn, MI"
    }
  },
  {
    "type": "Feature",
    "geometry": {
       "type": "Point",
       "coordinates":  [ -83.129431,42.295824 ]
    },
    "properties": {
    "Units of Measure":"Parts per billion",
    "Mean NO2 in 2022":25.175419,
    "Local Site Name":"TRINITY ST MARKS - Gordy Howe International Bridge (GHIB)",
    "Address":"9191 W FORT ST (TRINITY)",
    "State Name":"Michigan",
    "County Name":"Wayne",
    "City Name":"Detroit",
    "CBSA Name":"Detroit-Warren-Dearborn, MI"
    }
  },
  {
    "type": "Feature",
    "geometry": {
       "type": "Point",
       "coordinates":  [ -83.103469,42.312078 ]
    },
    "properties": {
    "Units of Measure":"Parts per billion",
    "Mean NO2 in 2022":27.375978,
    "Local Site Name":"Military Park (GHIB)",
    "Address":"1238 MILITARY ST (MILITARY PARK)",
    "State Name":"Michigan",
    "County Name":"Wayne",
    "City Name":"Detroit",
    "CBSA Name":"Detroit-Warren-Dearborn, MI"
    }
  },
  {
    "type": "Feature",
    "geometry": {
       "type": "Point",
       "coordinates":  [ -82.979793,42.388405 ]
    },
    "properties": {
    "Units of Measure":"Parts per billion",
    "Mean NO2 in 2022":23.93,
    "Local Site Name":"Stellantis-FCA Mack Avenue Assembly Plant Fiat Chrylser Automobiles",
    "Address":"11570 Warren Ave (Stellantis/FCA)",
    "State Name":"Michigan",
    "County Name":"Wayne",
    "City Name":"Detroit",
    "CBSA Name":"Detroit-Warren-Dearborn, MI"
    }
  },
  {
    "type": "Feature",
    "geometry": {
       "type": "Point",
       "coordinates":  [ -93.207615,45.13768 ]
    },
    "properties": {
    "Units of Measure":"Parts per billion",
    "Mean NO2 in 2022":16.040331,
    "Local Site Name":"Anoka County Airport",
    "Address":"9399 Lima St",
    "State Name":"Minnesota",
    "County Name":"Anoka",
    "City Name":"Blaine",
    "CBSA Name":"Minneapolis-St. Paul-Bloomington, MN-WI"
    }
  },
  {
    "type": "Feature",
    "geometry": {
       "type": "Point",
       "coordinates":  [ -93.207615,45.13768 ]
    },
    "properties": {
    "Units of Measure":"Parts per billion",
    "Mean NO2 in 2022":15.428402,
    "Local Site Name":"Anoka County Airport",
    "Address":"9399 Lima St",
    "State Name":"Minnesota",
    "County Name":"Anoka",
    "City Name":"Blaine",
    "CBSA Name":"Minneapolis-St. Paul-Bloomington, MN-WI"
    }
  },
  {
    "type": "Feature",
    "geometry": {
       "type": "Point",
       "coordinates":  [ -93.03255,44.76323 ]
    },
    "properties": {
    "Units of Measure":"Parts per billion",
    "Mean NO2 in 2022":16.354167,
    "Local Site Name":"Flint Hills Refinery 420",
    "Address":"12821 PINE BEND TRAIL",
    "State Name":"Minnesota",
    "County Name":"Dakota",
    "City Name":"Rosemount",
    "CBSA Name":"Minneapolis-St. Paul-Bloomington, MN-WI"
    }
  },
  {
    "type": "Feature",
    "geometry": {
       "type": "Point",
       "coordinates":  [ -93.06299,44.77553 ]
    },
    "properties": {
    "Units of Measure":"Parts per billion",
    "Mean NO2 in 2022":10.206215,
    "Local Site Name":"Flint Hills Refinery 423",
    "Address":"2142 120TH STREET EAST",
    "State Name":"Minnesota",
    "County Name":"Dakota",
    "City Name":"Inver Grove Heights (RR name Inver Grove)",
    "CBSA Name":"Minneapolis-St. Paul-Bloomington, MN-WI"
    }
  },
  {
    "type": "Feature",
    "geometry": {
       "type": "Point",
       "coordinates":  [ -93.285803,44.706123 ]
    },
    "properties": {
    "Units of Measure":"Parts per billion",
    "Mean NO2 in 2022":16.770718,
    "Local Site Name":"Near Road I-35",
    "Address":"16750 Kenyon Ave",
    "State Name":"Minnesota",
    "County Name":"Dakota",
    "City Name":"Lakeville",
    "CBSA Name":"Minneapolis-St. Paul-Bloomington, MN-WI"
    }
  },
  {
    "type": "Feature",
    "geometry": {
       "type": "Point",
       "coordinates":  [ -93.254759,44.965242 ]
    },